city_code;country_code;city_name_int;city_name;city_priority;global_priority;city_name_dative;city_name_from;city_name_in;city_name_instrumental;city_name_through;city_name_where;aliases;is_deprecated;search;lat;lon;is_updated;is_capital
AAA;PF;Anaa;Анаа;3;7321;;;;;;;;0;"'aaa':1 'anaa':3 'анаа':2";500;-145.417;0;0
OYO;AR;"Tres Arroyos";Трес-Арройос;8;5377;Трес-Арройосу;Трес-Арройоса;;Трес-Арройосом;Трес-Арройос;"в Трес-Арройосе";"Трес Арройос";0;"'arroyos':6 'oyo':1 'tres':5 'арройос':4 'трес':3 'трес-арройос':2";-38.3833;-60.2833;1;0
OZA;US;Ozona;;30;2040;;;;;;;;0;"'oza':1 'ozona':2";500;0;0;0
OZC;PH;"Ozamis City";"Озамис Сити";10;6100;"Озамис Сити";"Озамис Сити";;"Озамис Сити";"Озамис Сити";"в Озамис Сити";;0;"'city':6 'ozamis':5 'ozc':1 'озамис':3 'озамис-сити':2 'сити':4";8.181967;123.84541;1;0
OZG;MA;Zagora;Загора;6;3987;;;;;;;;0;"'ozg':1 'zagora':3 'загора':2";30.267143;-5.852456;1;0
OZH;UA;Zaporozhe;Запорожье;6;1264;Запорожью;Запорожья;"в Запорожье";Запорожьем;Запорожье;"в Запорожье";Запорижя;0;"'ozh':1 'zaporozhe':3 'запорожье':2";47.8167;35.1833;1;0
OZI;ES;Bobadilla;Бомбадилья;11;462;Бомбадилье;Бомбадильи;;Бомбадильей;Бомбадилью;"в Бомбадилье";;0;"'bobadilla':2 'ozi':1";42.3167;-2.75;1;0
OZP;ES;Moron;Морон;12;463;Морону;Морона;;Мороном;Морони;"в Мороне";;0;"'moron':7 'ozp':1 'де':4 'ла':5 'морон':3 'морон-де-ла-фронтера':2 'фронтера':6";37.2492;-5.75944;1;0
AAB;AU;Arrabury;Аррабери;15;4891;Аррабери;Аррабери;;Аррабери;Аррабери;"в Аррабери";;0;"'aab':1 'arrabury':3 'аррабури':2";-26.7;141.042;1;0
AAC;EG;"El Arish";Аль-Ариш;7;4022;;;;;;;;0;"'aac':1 'arish':6 'el':5 'аль':3 'аль-ариш':2 'ариш':4";500;0;0;0
AAE;DZ;Annaba;Аннаба;7;4551;Аннабе;Аннабы;;Аннабой;Аннабу;"в Аннабе";Анаба;0;"'aae':1 'annaba':3 'аннаба':2";36.9;7.76667;1;0
AAF;US;Apalachicola;Апалачикола;88;2098;Апалачиколе;Апалачиколы;;Апалачиколой;Апалачиколу;"в Апалачиколе";;0;"'aaf':1 'apalachicola':2";29.7258;-84.9832;1;0
AAG;BR;Arapoti;Арапоти;24;3678;Арапоти;Арапоти;;Арапоти;Арапоти;"в Арапоти";;0;"'aag':1 'arapoti':3 'арапоти':2";-24.1578;-49.8267;1;0
AAH;DE;Aachen;Ахен;21;655;Ахену;Ахена;;Ахеном;Ахен;"в Ахене";;0;"'aachen':3 'aah':1 'аахен':2";50.7766;6.08342;1;0
AAK;KI;Aranuka;Аранука;4;7126;Арануке;Аранукы;;Аранукой;Арануку;"в Арануке";;0;"'aak':1 'aranuka':3 'аранука':2";-1.46667;175.05;1;0
AAL;DK;Aalborg;Ольборг;5;1300;Ольборгу;Ольборга;"в Ольборг";Ольборгом;Ольборг;"в Ольборге";;0;"'aal':1 'aalborg':3 'аальбург':2";57.05;9.93333;1;0
AAN;AE;"Al Ain";Аль-Айн;5;194;Аль-Айну;Аль-Айна;;Аль-Айном;Аль-Айн;"в Аль-Айне";"Аль Айн";0;"'aan':1 'ain':6 'al':5 'айн':4 'аль':3 'аль-айн':2";24.1917;55.7606;1;0
AAO;VE;Anaco;Анако;8;7740;Анако;Анако;;Анако;Анако;"в Анако";;0;"'aao':1 'anaco':3 'анако':2";9.43889;-64.4728;1;0
AAQ;RU;Anapa;Анапа;6;6;Анапе;Анапы;"в Анапу";Анапой;Анапу;"в Анапе";;0;"'aaq':1 'anapa':3 'анапа':2";44.89;37.32;1;0
AAR;DK;Aarhus;Орхус;3;1298;Орхусу;Орхуса;;Орхусом;Орхус;"в Орхусе";;0;"'aar':1 'aarhus':3 'аарус':2";56.1567;10.2108;1;0
AAT;CN;Altay;Алтай;55;4270;Алта́ю;Алта́я;;Алта́ем;Алта́й;"на Алта́е";;0;"'aat':1 'altay':3 'алтай':2";47.8667;88.1167;1;0
AAX;BR;Araxa;Аракса;35;3689;Араксе;Араксы;;Араксой;Араксу;"в Араксе";;0;"'aax':1 'araxa':3 'араша':2";-19.5933;-46.9406;1;0
AAZ;GT;Quetzaltenango;Кесальтенанго;3;6630;Кесальтенанго;"из Кесальтенанго";"в Кесальтенанго";Кесальтенанго;Кесальтенанго;"в Кесальтенанго";;0;"'aaz':1 'quetzaltenango':3 'кесальтенанго':2";0;0;1;0
ABA;RU;Abakan;Абакан;26;26;Абакану;Абакана;"в Абакан";Абаканом;Абакан;"в Абакане";;0;"'aba':1 'abakan':3 'абакан':2";53.71;91.42;1;0
ABC;ES;Albacete;Альбасете;21;472;Альбасете;Альбасете;;Альбасете;Альбасете;"в Альбасете";;0;"'abc':1 'albacete':3 'албасет':2";38.9833;-1.85;1;0
ABD;IR;Abadan;Абадан;9;6670;Абадану;Абадана;;Абаданом;Абадан;"в Абадане";;0;"'abadan':3 'abd':1 'абадан':2";30.3525;48.2958;1;0
ABE;US;Allentown;Аллентаун;173;2183;;;;;;;;0;"'abe':1 'allentown':3 'аллентаун':2";500;-75.4902;0;0
ABH;AU;Alpha;Альфа;36;4912;;;;;;;;0;"'abh':1 'alpha':3 'альфа':2";500;146.633;0;0
AFY;TR;Afyon;Афион;11;1202;;;;;;;;0;"'afy':1 'afyon':3 'афион':2";500;0;0;0
AGA;MA;Agadir;Агадир;4;3985;Агадиру;Агадира;"в Агадир";Агадиром;Агадир;"в Агадире";;0;"'aga':1 'agadir':3 'агадир':2";30.4;-9.6;1;0
AGE;DE;Wangerooge;Вангерооге;27;661;;;;;;;;0;"'age':1 'wangerooge':3 'вангерооге':2";500;7.9;0;0
AGF;FR;Agen;Агене;24;222;Агене;Агене;;Агене;Агене;"в Агене";Аген;0;"'agen':3 'agf':1 'аген':2";44.2;0.633333;1;0
AGH;SE;Angelholm;Ангелхольм;16;1830;Ангелхольму;Ангелхольма;;Ангелхольмом;Ангелхольм;"в Ангелхольме";Ангельхольм;0;"'agh':1 'angelholm':3 'хельсингборг':2";56.25;12.8667;1;0
AGJ;JP;Aguni;Агуни;19;1559;Агуни;Агуни;;Агуни;Агуни;"в Агуни";;0;"'agj':1 'aguni':3 'агуни':2";26.5886;127.226;1;0
AGL;PG;Wanigela;Ванигела;35;6389;Ванигеле;Ванигелы;;Ванигелой;Ванигелу;"в Ванигеле";;0;"'agl':1 'wanigela':3 'ванигела':2";-10.05;148.2;1;0
AGN;US;Angoon;Ангун;227;2237;Ангуну;Ангуна;;Ангуном;Ангун;"в Ангуне";;0;"'agn':1 'angoon':2";57.5033;-134.584;1;0
AGO;US;Magnolia;Магнолиа;234;2244;;;;;;;;0;"'ago':1 'magnolia':2";500;-93.2393;0;0
AGP;ES;Malaga;Малага;4;455;Малаге;Малаги;"в Малагу";Малагой;Малагу;"в Малаге";;0;"'agp':1 'malaga':3 'малага':2";36.7202;-4.42034;1;0
ICK;SR;"Nieuw Nickerie";"Ньив Никкери";3;6741;"Ньив Никкери";"Ньив Никкери";;"Ньив Никкери";"Ньив Никкери";"в Ньив Никкери";"Ньив Никери";0;"'ick':1 'nickerie':3 'nieuw':2";5.95;-56.9833;1;0
ICO;PH;"Sicogon Island";;17;6107;;;;;;;;0;"'ico':1 'island':3 'sicogon':2";500;0;0;0
OZU;ES;Montilla;Монтилья;24;475;Монтилье;Монтильи;;Монтильей;Монтилью;"в Монтилье";;0;"'montilla':3 'ozu':1 'монтилья':2";37.5833;-4.63333;1;0
ICT;US;Wichita;Вичита;269;2279;Вичите;Вичиты;;Вичитой;Вичиту;"в Вичите";;0;"'ict':1 'wichita':3 'вичита':2";37.6922;-97.3375;1;0
IDA;US;"Idaho Falls";"Айдахо Фоллз";274;2284;"Айдахо Фоллзу";"Айдахо Фоллза";;"Айдахо Фоллзом";"Айдахо Фоллз";"в Айдахо Фоллзе";"Айдахо Фолз";0;"'falls':5 'ida':1 'idaho':4 'айдахо':2 'фоллз':3";43.4666;-112.034;1;0
IDB;SE;Idre;;21;1835;;;;;;;;0;"'idb':1 'idre':2";500;0;0;0
IDG;US;"Ida Grove";;285;2295;;;;;;;;0;"'grove':3 'ida':2 'idg':1";500;0;0;0
IDI;US;Indiana;Индиана;292;2302;Индиане;Индианы;;Индианой;Индиану;"в Индиане";;0;"'idi':1 'indiana':3 'индиана':2";40.6167;-79.15;1;0
IDN;PG;Indagen;Индахен;44;6398;Индахену;Индахена;;Индахеном;Индахен;"в Индахене";Индаген;0;"'idn':1 'indagen':3 'индаген':2";-6.23333;147.25;1;0
IDP;US;Independence;Индепенденс;305;2315;;;;;;;;0;"'idp':1 'independence':3 'индепенденс':2";500;0;0;0
IDR;IN;Indore;Индор;24;4658;Индору;Индора;;Индором;Индор;"в Индоре";;0;"'idr':1 'indore':3 'индор':2";22.7179;75.8333;1;0
IDY;FR;"Ile D Yeu";;32;230;;;;;;;;0;"'d':3 'idy':1 'ile':2 'yeu':4";500;0;0;0
PAN;TH;Pattani;Паттани;12;1983;;;;;;;;0;"'pan':1 'pattani':3 'паттани':2";500;101.274;0;0
IEG;PL;Zielona;"Зеленя Гура";10;1918;"Зеленя Гуре";"Зеленя Гуры";;"Зеленя Гурой";"Зеленя Гуру";"в Зеленя Гуре";"Зелена Гора, Зеленя Гора";0;"'ieg':1 'zielona':5 'гора':4 'зелена':3 'зелена-гора':2";52.9333;20.85;1;0
PAO;US;"Palo Alto";Пало-Альто;336;2346;Пало-Альто;Пало-Альто;;Пало-Альто;Пало-Альто;"в Пало-Альто";"Пало Альто";0;"'alto':5 'palo':4 'pao':1 'альто':3 'пало':2";37.4419;-122.143;1;0
IEJ;JP;Iejima;Иежима;33;1573;;;;;;;;0;"'iej':1 'iejima':3 'иежима':2";500;0;0;0
PAP;HT;"Port Au Prince";Порт-о-Пренс;1;6659;Порт-о-Пренсу;Порт-о-Пренса;"в Порт-о-Пренс";Порт-о-Пренсом;Порт-о-Пренс;"в Порт-о-Пренсе";"Порт о Пренс";0;"'au':7 'pap':1 'port':6 'prince':8 'о':4 'порт':3 'порт-о-пренс':2 'пренс':5";500;-72.335;1;1
PAQ;US;Palmer;Палмер;350;2360;Палмеру;Палмера;;Палмером;Палмер;"в Палмере";;0;"'palmer':3 'paq':1 'палмер':2";0;0;1;0
IES;DE;Riesa;Риза;31;665;;;;;;;;0;"'ies':1 'riesa':3 'риза':2";500;0;0;0
PAR;FR;Paris;Париж;1;199;Парижу;Парижа;"в Париж";Парижем;Париж;"в Париже";;0;"'par':1 'paris':3 'париж':2";48.8534;2.3488;1;1
IEV;UA;Kiev;Киев;1;1259;Киеву;Киева;"в Киев";Киевом;Киев;"в Киеве";"Жуляны, Киив,Украина";0;"'iev':1 'kyiv':3 'киев':2";50.4333;30.5167;1;1
PAS;GR;Paros;Парос;17;565;Паросу;Пароса;;Паросом;Парос;"в Паросе";;0;"'paros':3 'pas':1 'парос':2";37.0833;25.15;1;0
IFA;US;"Iowa Falls";;373;2383;;;;;;;;0;"'falls':3 'ifa':1 'iowa':2";500;0;0;0
PAT;IN;Patna;Патна;28;4662;;;;;;;;0;"'pat':1 'patna':3 'патна':2";500;85.1167;0;0
PAU;MM;Pauk;Паук;6;7255;;;;;;;;0;"'pau':1 'pauk':3 'паук':2";500;0;0;0
PAV;BR;"Paulo Afonso";Паулу-Афонсу;93;3747;;;;;;;;0;"'afonso':6 'paulo':5 'pav':1 'афонсу':4 'паулу':3 'паулу-афонсу':2";500;-38.2147;0;0
PAW;PG;Pambwa;Памбва;52;6406;Памбве;Памбвы;;Памбвой;Памбву;"в Памбве";;0;"'pambwa':3 'paw':1 'памбва':2";-11.4167;154.033;1;0
PAY;MY;Pamol;Памол;20;6057;;;;;;;;0;"'pamol':2 'pay':1";500;117.4;0;0
PAZ;MX;"Poza Rica";Поза-Рика;23;5970;Поза-Рике;Поза-Рики;;Поза-Рикой;Поза-Рику;"в Поза-Рике";"Поза Рика";0;"'paz':1 'poza':5 'rica':6 'поса':3 'поса-рика':2 'рика':4";28.7833;-111.6;1;0
PBB;BR;Paranaiba;Паранаиба;98;3752;Паранаибе;Паранаибы;;Паранаибой;Паранаибу;"в Паранаибе";;0;"'paranaiba':3 'pbb':1 'паранаиба':2";-19.6772;-51.1908;1;0
PBC;MX;Puebla;Пуэбла;24;5971;Пуэбле;Пуэблы;;Пуэблой;Пуэблу;"в Пуэбле";;0;"'pbc':1 'puebla':6 'де':4 'пуэбла':3 'пуэбла-де-сарагоса':2 'сарагоса':5";19.05;-98.2;1;0
IGD;TR;Igdir;Ыгдыр;25;1216;Ыгдыру;Ыгдыра;;Ыгдыром;Ыгдыр;Ыгдыре;;0;"'igd':1 'igdir':3 'ыгдыр':2";39.920833;44.044444;1;0
IGB;AR;"Ingeniero Jacobacci";Инженеро-Джако;24;5393;;;;;;;;0;"'igb':1 'ingeniero':5 'jacobacci':6 'джако':4 'инженеро':3 'инженеро-джако':2";500;0;0;0
IGH;AU;Ingham;Ингэм;95;4971;Ингэму;Ингэма;;Ингэмом;Ингэм;"в Ингэме";Ингем;0;"'igh':1 'ingham':3 'ингем':2";-18.65;146.167;1;0
IGM;US;Kingman;Кингман;451;2461;Кингману;Кингмана;;Кингманом;Кингман;"в Кингмане";;0;"'igm':1 'kingman':3 'кингман':2";35.1894;-114.053;1;0
IGN;PH;Iligan;Илиган;22;6112;;;;;;;;0;"'ign':1 'iligan':3 'илиган':2";500;0;0;0
IGO;CO;Chigoro;Чигородо;31;6921;Чигородо;Чигородо;;Чигородо;Чигородо;"в Чигородо";;0;"'chigoro':3 'igo':1 'чигородо':2";7.68167;-76.6867;1;0
IGR;AR;Iguazu;Игуасу;3;5372;Игуасу;Игуасу;;Игуасу;Игуасу;"в Игуасу";;0;"'igr':1 'iguazu':3 'игуасу':2";-25.7417;-54.4658;1;0
IGS;DE;"Ingolstadt Manching";"Инголштадт Манчинг";42;676;"Инголштадт Манчингу";"Инголштадт Манчинга";;"Инголштадт Манчингом";"Инголштадт Манчинг";"в Инголштадт Манчинге";;0;"'igs':1 'ingolstadt':3 'manching':4 'ингольштадт':2";48.72;11.53;1;0
IJU;BR;Ijui;Ижуи;113;3767;;;;;;;;0;"'iju':1 'ijui':3 'ижуи':2";500;0;0;0
IJX;US;Jacksonville;Джексонвилл;489;2499;Джексонвиллу;Джексонвилла;;Джексонвиллом;Джексонвилл;"в Джексонвилле";Джексонвил;0;"'ijx':1 'jacksonville':3 'джексонвилл':2";39.7742;-90.2372;1;0
IKB;US;Wilkesboro;;497;2507;;;;;;;;0;"'ikb':1 'wilkesboro':2";500;0;0;0
IKE;GL;Ikerasak;;23;6573;;;;;;;;0;"'ike':1 'ikerasak':2";500;0;0;0
IUI;GL;Innarsuit;;24;6574;;;;;;;;0;"'innarsuit':2 'iui':1";500;0;0;0
IVA;MG;Ambanja;Амбандза;17;7202;;;;;;;;0;"'ambanja':3 'iva':1 'амбандза':2";500;48.45;0;0
IVC;NZ;Invercargill;Инверкаргилл;23;5289;Инверкаргиллу;Инверкаргилла;;Инверкаргиллом;Инверкаргилл;"в Инверкаргилле";Инверкаргил;0;"'invercargill':3 'ivc':1 'инверкаргилл':2";-46.4;168.35;1;0
IVG;ME;Berane;Беране;5;1343;;;;;;;;0;"'berane':3 'ivg':1 'беране':2";500;0;0;0
IVH;US;Ivishak;;537;2547;;;;;;;;0;"'ivh':1 'ivishak':2";500;0;0;0
IVL;FI;Ivalo;Ивало;22;4599;Ивало;Ивало;;Ивало;Ивало;"в Ивало";;0;"'ivalo':3 'ivl':1 'ивало':2";68.65;27.6;1;0
IVR;AU;Inverell;Инверелл;118;4994;Инвереллу;Инверелла;;Инвереллом;Инверелл;"в Инверелле";Инверел;0;"'inverell':3 'ivr':1 'инверелл':2";-29.7833;151.117;1;0
IWA;RU;Ivanovo;Иваново;69;69;Иваново;Иваново;"в Иваново";Иваново;Иваново;"в Иваново";;0;"'ivanovo':3 'iwa':1 'иваново':2";56.9942;40.9858;1;0
IWD;US;Ironwood;Айенвуд;558;2568;Айенвуду;Айенвуда;;Айенвудом;Айенвуд;"в Айенвуде";"Железный Лес, Айронвуд";0;"'ironwood':2 'iwd':1";46.4547;-90.171;1;0
IWJ;JP;Iwami;Ивами;41;1581;Ивами;Ивами;;Ивами;Ивами;"в Ивами";;0;"'iwami':3 'iwj':1 'масуда':2";34.7833;134.533;1;0
IWK;JP;Iwakuni;Ивакуни;43;1583;;;;;;;;0;"'iwakuni':3 'iwk':1 'ивакуни':2";34.15;132.183333;1;0
IXA;IN;Agartala;Агартала;41;4675;Агартале;Агарталы;;Агарталой;Агарталу;"в Агартале";;0;"'agartala':3 'ixa':1 'агартала':2";23.8364;91.275;1;0
IXB;IN;Bagdogra;Багдогра;43;4677;Багдогре;Багдогры;;Багдогрой;Багдогру;"в Багдогре";;0;"'bagdogra':3 'ixb':1 'багдогра':2";26.7;88.3167;1;0
IXC;IN;Chandigarh;Чандигарх;45;4679;Чандигарху;Чандигарха;;Чандигархом;Чандигарх;"в Чандигархе";;0;"'chandigarh':3 'ixc':1 'чандигарх':2";30.7372;76.7872;1;0
IXD;IN;Allahabad;Аллахабад;47;4681;Аллахабаду;Аллахабада;;Аллахабадом;Аллахабад;"в Аллахабаде";Алахабад;0;"'allahabad':3 'ixd':1 'аллахабад':2";25.45;81.85;1;0
IXE;IN;Mangalore;Мангалор;48;4682;Мангалоре;Мангалора;;Мангалором;Мангалор;"в Мангалоре";;0;"'ixe':1 'mangalore':3 'мангалор':2";12.8667;74.8833;1;0
IXG;IN;Belgaum;Белгаум;49;4683;Белгауму;Белгаума;;Белгаумом;Белгаум;"в Белгауме";;0;"'belgaum':3 'ixg':1 'белгаум':2";15.8667;74.5;1;0
IXH;IN;Kailashahar;Каласахар;50;4684;Каласахару;Каласахара;;Каласахаром;Каласахар;"в Каласахаре";Калашахар;0;"'ixh':1 'kailashahar':3 'кайлашахар':2";0;0;1;0
IXI;IN;Lilabari;Тилабари;51;4685;Тилабари;Тилабари;;Тилабари;Тилабари;"в Тилабари";;0;"'ixi':1 'lilabari':3 'лилабари':2";27.2903;94.0889;1;0
IXJ;IN;Jammu;Джамму;52;4686;Джамму;Джамму;;Джамму;Джамму;"в Джамму";Джаму;0;"'ixj':1 'jammu':3 'джамму':2";32.7333;74.8667;1;0
IXK;IN;Keshod;Кешод;53;4687;Кешоду;Кешода;;Кешодом;Кешод;"в Кешоде";;0;"'ixk':1 'keshod':3 'кешод':2";21.3;70.25;1;0
IXL;IN;"Leh IN";"Лех Индия";55;4689;Леху;Леха;;Лехом;Лех;"в Лехе";;0;"'in':4 'ixl':1 'leh':3 'лех':2";34.1667;77.5833;1;0
IXM;IN;Madurai;Мадураи;56;4690;Мадураи;Мадураи;;Мадураи;Мадураи;"в Мадураи";;0;"'ixm':1 'madurai':3 'мадурай':2";9.93333;78.1167;1;0
IXN;IN;Khowai;Ховаи;58;4692;Ховаи;Ховаи;;Ховаи;Ховаи;"в Ховаи";Ховай;0;"'ixn':1 'khowai':3 'ховаи':2";0;0;1;0
IXW;IN;Jamshedpur;Джамшедпур;60;4694;Джамшедпуру;Джамшедпура;;Джамшедпуром;Джамшедпур;"в Джамшедпуре";;0;"'ixw':1 'jamshedpur':3 'джамшедпур':2";22.8;86.1833;1;0
IXY;IN;Kandla;Кэндла;62;4696;Кэндле;Кэндлы;;Кэндлой;Кэндлу;"в Кэндле";"Кендла, Кандла";0;"'ixy':1 'kandla':3 'кандия':2";23.11111;70.104164;1;0
IXZ;IN;"Port Blair";Порт-Блер;63;4697;Порт-Блеру;Порт-Блера;;Порт-Блером;Порт-Блер;"в Порт-Блере";"Порт Блер";0;"'blair':6 'ixz':1 'port':5 'блер':4 'порт':3 'порт-блер':2";11.6667;92.75;1;0
IYK;US;Inyokern;Иниокерн;680;2690;Иниокерну;Иниокерна;;Иниокерном;Иниокерн;"в Иниокерне";;0;"'inyokern':2 'iyk':1";35.6469;-117.813;1;0
IZM;TR;Izmir;Измир;5;1196;Измиру;Измира;"в Измир";Измиром;Измир;"в Измире";Турция;0;"'izm':1 'izmir':3 'измир':2";38.4072;27.1503;1;0
IZO;JP;Izumo;Изумо;56;1596;Изумо;Изумо;;Изумо;Изумо;"в Изумо";;0;"'izo':1 'izumo':3 'идзумо':2";35.3667;132.767;1;0
IZT;MX;Ixtepec;Ихтепек;39;5986;Ихтепеку;Ихтепека;;Ихтепеком;Ихтепек;"в Ихтепеке";;0;"'ixtepec':3 'izt':1 'ихтепек':2";16.5786;-95.1022;1;0
JAB;AU;Jabiru;Джабиру;147;5023;;;;;;;;0;"'jab':1 'jabiru':3 'джабиру':2";500;132.892;0;0
JAC;US;Jackson;Джексон;709;2719;;;;;;;;0;"'jac':1 'jackson':3 'джексон':2";500;-110.737;0;0
JAD;AU;Jandakot;Джандакот;151;5027;Джандакоту;Джандакота;;Джандакотом;Джандакот;"в Джандакоте";;0;"'jad':1 'jandakot':3 'перт':2";-32.0833;115.883;1;0
JAE;PE;Jaen;Хаэн;17;5347;;;;;;;;0;"'jae':1 'jaen':3 'хаэн':2";500;-78.808333;0;0
JAF;LK;Jaffna;Джафна;3;4856;Джафне;Джафны;"в Джафну";Джафной;Джафну;"в Джафне";;0;"'jaf':1 'jaffna':3 'джафна':2";0;0;1;0
JAG;PK;Jacobabad;Джакобабад;23;7625;;;;;;;;0;"'jacobabad':3 'jag':1 'джакобабад':2";500;68.4361;0;0
JAH;FR;Aubagne;Обань;59;257;Обаню;Обаня;;Обанем;Обань;"в Обане";Аубагне;0;"'aubagne':3 'jah':1 'обань':2";43.2833;5.56667;1;0
JAI;IN;Jaipur;Джайпур;6;4640;Джайпуру;Джайпура;;Джайпуром;Джайпур;"в Джайпуре";;0;"'jai':1 'jaipur':3 'джайпур':2";26.9167;75.8167;1;0
JAK;HT;Jacmel;Жакмель;3;6661;;;;;;;;0;"'jacmel':3 'jak':1 'жакмель':2";500;0;0;0
JAL;MX;Jalapa;Халапа;41;5988;Халапе;Халапы;;Халапой;Халапу;"в Халапе";;0;"'jal':1 'jalapa':3 'халапа':2";19.5333;-96.9167;1;0
JAN;US;Jackson;Джексон;785;2795;;;;;;;;0;"'jackson':3 'jan':1 'джексон':2";500;-90.2;0;0
JAP;CR;"Punta Renes";"Пунта Ренес";12;6982;"Пунта Ренесу";"Пунта Ренеса";;"Пунта Ренесом";"Пунта Ренес";"в Пунта Ренесе";;0;"'jap':1 'punta':4 'renes':5 'пунта':2 'ренес':3";9.96667;-84.8333;1;0
JAQ;PG;Jacquinot;Джакинот;95;6449;Джакиноту;Джакинота;;Джакинотом;Джакинот;"в Джакиноте";;0;"'jacquinot':5 'jaq':1 'бей':4 'жакино':3 'жакино-бей':2";-5.6;151.517;1;0
JAU;PE;Jauja;Хауха;19;5349;Хаухе;Хаухи;;Хаухой;Хауху;"в Хаухе";"Яуйа, Яуйя";0;"'jau':1 'jauja':3 'хауха':2";-11.75;-75.25;1;0
JAV;GL;Ilulissat;Илуилиссат;3;6553;Илуилиссату;Илуилиссата;;Илуилиссатом;Илуилиссат;"в Илуилиссате";Илуилисат;0;"'ilulissat':3 'jav':1 'илулиссат':2";69.2167;-51.1;1;0
JAX;US;Jacksonville;Джексонвилл;820;2830;Джексонвиллу;Джексонвилла;;Джексонвиллом;Джексонвилл;"в Джексонвилле";Джексонвил;0;"'jacksonville':3 'jax':1 'джэксонвилл':2";30.5;-81.6667;1;0
JBQ;DO;Higuero;Хайгверо;9;4543;Хайгверо;Хайгверо;;Хайгверо;Хайгверо;"в Хайгверо";Хайгуеро;0;"'higuero':2 'jbq':1";0;0;1;0
KTH;US;Tikchik;;836;2846;;;;;;;;0;"'kth':1 'tikchik':2";500;0;0;0
PBD;IN;Porbandar;Порбандар;73;4707;Порбандару;Порбандара;;Порбандаром;Порбандар;"в Порбандаре";;0;"'pbd':1 'porbandar':3 'порбандар':2";21.6422;69.6093;1;0
PBE;CO;"Puerto Berrio";Пуэрто-Беррио;45;6935;Пуэрто-Беррио;Пуэрто-Беррио;;Пуэрто-Беррио;Пуэрто-Беррио;"в Пуэрто-Беррио";"Пуэрто Беррио";0;"'berrio':6 'pbe':1 'puerto':5 'беррио':4 'пуэрто':3 'пуэрто-беррио':2";6.49444;-74.4067;1;0
PBF;US;"Pine Bluff";"Пайн Блафф";858;2868;"Пайн Блаффу";"Пайн Блаффа";;"Пайн Блаффом";"Пайн Блафф";"в Пайн Блаффе";"Пайн Блаф";0;"'bluff':3 'pbf':1 'pine':2";34.2284;-92.0032;1;0
PBI;US;"West Palm Beach";"Уэст Пальм Бич";865;2875;"Уэст Пальм Бич";"Уэст Пальм Бич";;"Уэст Пальм Бич";"Уэст Пальм Бич";"в Уэст Пальм Бич";;0;"'beach':7 'palm':6 'pbi':1 'west':5 'бич':4 'палм':3 'уест':2";26.7153;-80.0534;1;0
PBL;VE;"Puerto Cabello";Пуэрто-Кабелло;19;7751;Пуэрто-Кабелло;Пуэрто-Кабелло;;Пуэрто-Кабелло;Пуэрто-Кабелло;"в Пуэрто-Кабелло";;0;"'cabello':6 'pbl':1 'puerto':5 'кабельо':4 'пуэрто':3 'пуэрто-кабельо':2";10.4731;-68.0125;1;0
PBM;SR;Paramaribo;Парамарибо;1;6739;Парамарибо;Парамарибо;;Парамарибо;Парамарибо;"в Парамарибо";;0;"'paramaribo':3 'pbm':1 'парамарибо':2";5.83333;-55.1667;1;1
PBO;AU;Paraburdoo;Парабурду;193;5069;Парабурду;Парабурду;;Парабурду;Парабурду;"в Парабурду";;0;"'paraburdoo':3 'pbo':1 'параберду':2";-23.1667;117.75;1;0
PBP;CR;"Punta Islita";"Пунта Ислита";14;6984;;;;;;;;0;"'islita':3 'pbp':1 'punta':2";10.416667;-85.166664;1;0
PBR;GT;"Puerto Barrios";"Пуэрто Барриос";7;6634;"Пуэрто Барриосу";"Пуэрто Барриоса";;"Пуэрто Барриосом";"Пуэрто Барриос";"в Пуэрто Барриосе";"Порт Бариос";0;"'barrios':5 'pbr':1 'puerto':4 'барриос':3 'пуэрто':2";15.7167;-88.6;1;0
PBS;TH;"Patong Beach";Патонг-Бич;26;1997;Патонг-Бичу;Патонг-Бича;;Патонг-Бичем;Патонг-Бич;"в Патонг-Биче";"Патонг Бич";0;"'beach':6 'patong':5 'pbs':1 'бич':4 'патонг':3 'патонг-бич':2";7.89528;98.2917;1;0
PCM;MX;"Playa Del Carmen";Плайя-дель-Кармен;50;5997;Плайя-дель-Кармен;Плайя-дель-Кармен;;Плайя-дель-Кармен;Плайя-дель-Кармен;"в Плайя-дель-Кармен";"Плайя дель Кармен";0;"'carmen':8 'del':7 'pcm':1 'playa':6 'дель':4 'кармен':5 'плая':3 'плая-дель-кармен':2";20.6355;-87.0701;1;0
PCP;ST;"Principe Is.";Принсипи;2;7648;;;;;;;;0;"'is':3 'pcp':1 'principe':2";500;0;0;0
PCQ;LA;Phongsaly;;11;4846;;;;;;;;0;"'pcq':1 'phongsaly':2";500;0;0;0
PCR;CO;"Puerto Carreno";"Пуэрто Карено";46;6936;"Пуэрто Карено";"Пуэрто Карено";;"Пуэрто Карено";"Пуэрто Карено";"в Пуэрто Карено";;0;"'carreno':6 'pcr':1 'puerto':5 'каррено':4 'пуэрто':3 'пуэрто-каррено':2";6.183333;-67.63333;1;0
PCS;BR;Pikos;Пикус;182;3836;Пикусу;"из Пикуса";"в Пикус";Пикусом;Пикус;"в Пикусе";;0;"'pcs':1 'picos':3 'пикос':2";0;0;1;0
PCT;US;Princeton;Принстон;932;2942;Принстону;Принстона;;Принстоном;Принстон;"в Принстоне";;0;"'pct':1 'princeton':3 'принстон':2";40.3487;-74.659;1;0
PCU;US;Picayune;;936;2946;;;;;;;;0;"'pcu':1 'picayune':2";500;0;0;0
PCW;GB;Par;Пар;71;956;;;;;;;;0;"'gb':3 'par':2 'pcw':1";0;0;1;0
PDA;CO;"Puerto Inirida";"Пуэрто Инирида";49;6939;"Пуэрто Инириде";"Пуэрто Инириды";;"Пуэрто Иниридой";"Пуэрто Инириду";"в Пуэрто Инириде";;0;"'inirida':6 'pda':1 'puerto':5 'инирида':4 'пуэрто':3 'пуэрто-инирида':2";3.883333;-67.88333;1;0
PDB;US;"Pedro Bay";"Педро Бэй";962;2972;"Педро Бэю";"Педро Бэя";;"Педро Бэем";"Педро Бэй";"в Педро Бэе";;0;"'bay':3 'pdb':1 'pedro':2";59.783333;-154.11667;1;0
PDE;AU;"Pandie Pandie";Панди-Панди;216;5092;Панди-Панди;Панди-Панди;;Панди-Панди;Панди-Панди;"в Панди-Панди";"Панди Панди";0;"'pandie':5,6 'pde':1 'пэнди':3,4 'пэнди-пэнди':2";-26;138.667;1;0
PDG;ID;Padang;Паданг;5;4049;Падангу;Паданга;;Падангом;Паданг;"в Паданге";;0;"'padang':3 'pdg':1 'паданг':2";-0.949244;100.354;1;0
PDL;PT;"Ponta Delgada";Понта-Делгада;5;1947;Понта-Делгада;Понта-Делгада;;Понта-Делгада;Понта-Делгада;"в Понта-Делгада";"Понта Делгада";0;"'delgada':3 'pdl':1 'ponta':2";37.7333;-25.6667;1;0
PDM;PA;Pedasi;;17;7313;;;;;;;;0;"'pdm':1 'pedasi':2";500;0;0;0
PDP;UY;"Punta Del Este";Пунта-дель-Эсте;2;7724;Пунта-дель-Эсте;Пунта-дель-Эсте;;Пунта-дель-Эсте;Пунта-дель-Эсте;"в Пунта-дель-Эсте";"Пунта дель Эсте";0;"'del':7 'este':8 'pdp':1 'punta':6 'дель':4 'пунта':3 'пунта-дель-эсте':2 'эсте':5";-34.9667;-54.95;1;0
PDS;MX;"Piedras Negras";Пиедрас-Неграс;56;6003;Пиедрас-Неграсу;Пиедрас-Неграса;;Пиедрас-Неграсом;Пиедрас-Неграс;"в Пиедрас-Неграсе";"Пиедрас Неграс";0;"'negras':6 'pds':1 'piedras':5 'неграс':4 'пьедрас':3 'пьедрас-неграс':2";28.7;-100.517;1;0
PDT;US;Pendleton;Пендлетон;997;3007;Пендлетону;Пендлетона;;Пендлетоном;Пендлетон;"в Пендлетоне";;0;"'pdt':1 'pendleton':2";45.6721;-118.789;1;0
PDU;UY;Paysandu;Пайсанду;9;7731;Пайсанду;Пайсанду;;Пайсанду;Пайсанду;"в Пайсанду";;0;"'paysandu':3 'pdu':1 'пайсанду':2";-32.3214;-58.0756;1;0
PEL;LS;Pelaneng;Пеланенг;13;7174;;;;;;;;0;"'pel':1 'pelaneng':3 'пеланенг':2";500;27.9167;0;0
PEM;PE;"Puerto Maldonado";"Пуэрто Мальдонадо";20;5350;;;;;;;;0;"'maldonado':5 'pem':1 'puerto':4 'мальдонадо':3 'пуэрто':2";500;-69.1833;0;0
PEN;MY;Penang;Пенанг;2;6039;;;;;;;;0;"'pen':1 'penang':3 'пенанг':2";500;100.333;0;0
MPT;TL;Maliana;;4;7677;;;;;;;;0;"'maliana':2 'mpt':1";500;0;0;0
CGU;VE;"Ciudad Guayana";Сьюдад-Гуаяна;23;7755;"Ciudad Guayana";"Ciudad Guayana";;"Ciudad Guayana";"Ciudad Guayana";"в Ciudad Guayana";"Сьюдад Гуаяна";0;"'cgu':1 'ciudad':5 'guayana':6 'гуаяна':4 'сьюдад':3 'сьюдад-гуаяна':2";8.35333;-62.6528;1;0
CGY;PH;Cagayan;"Кагаян де Оро";44;6134;"Кагаян де Оро";"Кагаян де Оро";;"Кагаян де Оро";"Кагаян де Оро";"в Кагаян де Оро";;0;"'cagayan':5 'cgy':1 'де':3 'кагаян':2 'оро':4";6.97667;118.514;1;0
CHA;US;Chattanooga;Чаттануга;1054;3064;;;;;;;;0;"'cha':1 'chattanooga':3 'чаттануга':2";500;-85.3097;0;0
CHC;NZ;Christchurch;Крайстчерч;3;5269;Крайстчерчу;Крайстчерча;"в Крайстчерч";Крайстчерчем;Крайстчерч;"в Крайстчерче";Кристчерч;0;"'chc':1 'christchurch':3 'кристчерч':2";-43.5333;172.633;1;0
CHD;US;Chandler;Чэндлер;1063;3073;Чэндлеру;Чэндлера;;Чэндлером;Чэндлер;"в Чэндлере";"Чандлер, Чендлер";0;"'chandler':3 'chd':1 'меса':2";0;0;1;0
CHG;CN;Chaoyang;Шаоян;213;4428;Шаояну;"из Шаояна";"в Шаоян";Шаояном;Шаоян;"в Шаояне";;0;"'chaoyang':3 'chg':1 'чаоян':2";41.545082;120.4372;1;0
CHI;US;Chicago;Чикаго;6;2016;Чикаго;Чикаго;"в Чикаго";Чикаго;Чикаго;"в Чикаго";;0;"'chi':1 'chicago':3 'чикаго':2";500;-87.6501;1;0
CHT;NZ;"Chatham Island";Чатам-Айленд;38;5304;;;;;;;;0;"'chatham':5 'cht':1 'island':6 'айленд':4 'чатам':3 'чатам-айленд':2";500;-176.35;0;0
CIO;PY;Concepcion;Консепсьон;4;6539;Консепсьону;Консепсьона;;Консепсьоном;Консепсьон;"в Консепсьоне";Консепсион;0;"'cio':1 'concepcion':3 'консепсьон':2";-23.4344;-57.4183;1;0
CIT;KZ;Shimkent;Шымкент;4;1170;Шымкенту;Шымкента;"в Шымкент";Шымкентом;Шымкент;"в Шымкенте";"Шимкент, Чимкент";0;"'cit':1 'shimkent':3 'шимкент':2";42.3;69.6;1;0
CIW;VC;"Canovan Island";"о-в Кануан";5;7782;Кануану;Кануана;;Кануаном;Кануан;"в Кануане";"Канован, Кануан";0;"'canouan':2 'ciw':1 'island':3";12.7;-61.3167;1;0
CJA;PE;Cajamarca;Кахамарка;22;5352;Кахамарке;Кахамарки;;Кахамаркой;Кахамарку;"в Кахамарке";"Кайамярка, Каямарка";0;"'cajamarca':3 'cja':1 'кахамарка':2";-7.16378;-78.5003;1;0
CJB;IN;Coimbatore;Коимбатур;7;4641;Коимбатуру;Коимбатура;"в Коимбатур";Коимбатуром;Коимбатур;"в Коимбатуре";Коймбаторе,Коимбаторе;0;"'cjb':1 'coimbatore':3 'коимбаторе':2";11;76.9667;1;0
CJC;CL;Calama;Калама;35;5924;Каламе;Каламы;;Каламой;Каламу;"в Каламе";;0;"'calama':3 'cjc':1 'калама':2";-22.4667;-68.9333;1;0
CJI;ES;"Ciudad Real";Сьюдад-Реаль;69;520;Сьюдад-Реале;"из Сьюдад-Реаль";"в Сьюдад-Реаль";Сьюдад-Реалем;Сьюдад-Реаль;"в Сьюдад-Реале";;0;"'city':6 'ciudad':4 'cji':1 'real':5 'реаль':3 'сиудад':2";38.9833;-3.93333;1;0
CJL;PK;Chitral;Читрал;30;7632;Читралу;Читрала;;Читралом;Читрал;"в Читрале";;0;"'chitral':3 'cjl':1 'читрал':2";34.21;71.8258;1;0
CJM;TH;Chumphon;Чампхон;33;2004;Чампхону;Чампхона;;Чампхоном;Чампхон;"в Чампхоне";Чампфон,Чумпхон;0;"'chumphon':3 'cjm':1 'чампхон':2";10.5;99.1667;1;0
CJN;ID;"El Cajon";"Эль Кахон";111;4155;"Эль Кахону";"Эль Кахона";;"Эль Кахоном";"Эль Кахон";"в Эль Кахоне";"Эль Кайон";0;"'cijulang':2 'cjn':1";32.7948;-116.963;1;0
CJS;MX;"Ciudad Juarez";Сиудад-Хуарес;68;6015;Сиудад-Хуаресу;Сиудад-Хуареса;;Сиудад-Хуаресом;Сиудад-Хуарес;Сиудад-Хуаресе;"Циудад Хуарес, Сиудад Хуарес";0;"'ciudad':4 'cjs':1 'juarez':5 'сиудад':2 'хуарез':3";31.7333;-106.483;1;0
CJU;KR;"Jeju City";Чеджу;4;4812;Чеджу;Чеджу;"в Чеджу";Чеджу;Чеджу;"в Чеджу";"Чежу Сити, Чеджу Сити, Чежу";0;"'city':4 'cju':1 'jeju':3 'чеджу':2";33.5097;126.522;1;0
QYO;PL;Olsztyn;Ольштын;21;1929;Ольштыну;Ольштына;;Ольштыном;Ольштын;"в Ольштыне";Олштын;0;"'olsztyn':2 'qyo':1";53.7833;20.4833;1;0
VAG;BR;Varginha;Варжинья;221;3875;;;;;;;;0;"'vag':1 'varginha':3 'варжинья':2";500;-45.4303;0;0
VAI;PG;Vanimo;Ванимо;128;6482;Ванимо;Ванимо;;Ванимо;Ванимо;"в Ванимо";;0;"'vai':1 'vanimo':3 'ванимо':2";-2.68333;141.3;1;0
VBV;FJ;Vanuabalavu;Вануабалаву;16;4629;Вануабалаву;Вануабалаву;;Вануабалаву;Вануабалаву;"в Вануабалаву";;0;"'vanuabalavu':3 'vbv':1 'вануабалаву':2";-17.2333;-178.95;1;0
VBY;SE;Visby;Висбю;37;1851;Висбю;Висбю;;Висбю;Висбю;"в Висбю";;0;"'vby':1 'visby':3 'висби':2";500;18.3;1;0
VCA;VN;"Can Tho";Кантхо;26;6174;Кантхо;Кантхо;;Кантхо;Кантхо;"в Кантхо";;0;"'can':5 'tho':6 'vca':1 'кан':3 'кан-тхо':2 'тхо':4";10.0333;105.783;1;0
VCE;IT;Venice;Венеция;3;1060;Венеции;Венеции;"в Венецию";Венецией;Венецию;"в Венеции";;0;"'vce':1 'venice':3 'венеция':2";45.4386;12.3267;1;0
VCL;VN;Tamky;Тамки;27;6175;Тамки;Тамки;;Тамки;Тамки;"в Тамки";;0;"'tamky':3 'vcl':1 'тамки':2";15.4222;108.704;1;0
VCS;VN;"Con Dao";"Кон Дао";28;6176;"Кон Дао";"Кон Дао";;"Кон Дао";"Кон Дао";"в Кон Дао";;0;"'con':3 'dao':4 'vcs':1 'кондао':2";10.371389;106.63333;1;0
VCT;US;Victoria;Виктория;1224;3234;Виктории;Виктории;;Викторией;Викторию;"в Виктории";;0;"'vct':1 'victoria':3 'лимбе':2";28.8511;-96.9144;1;0
VCV;US;Victorville;Викторвилль;1233;3243;Викторвиллю;Викторвилля;;Викторвиллем;Викторвилль;"в Викторвилле";Викторвиль;0;"'vcv':1 'victorville':3 'викторвилл':2";34.5361;-117.291;1;0
VDA;IL;Ovda;Овда;5;603;Овде;Овды;"в Овду";Овдой;Овду;"в Овде";"Эйлат, Увда";0;"'ovda':3 'vda':1 'эйлат':2";29.9333;34.9472;1;0
VDB;NO;Fagernes;Фагернес;65;1749;Фагернесу;Фагернеса;;Фагернесом;Фагернес;"в Фагернесе";;0;"'fagernes':3 'vdb':1 'фагернес':2";60.9833;9.25;1;0
VDC;BR;"Vitoria Da Conquista";Витория-Да-Конкиста;229;3883;Витории-Да-Конкиста;Витории-Да-Конкиста;;Виторией-Да-Конкиста;Виторию-Да-Конкиста;"в Витории-Да-Конкиста";"Витория Да Конкиста";0;"'conquista':8 'da':7 'vdc':1 'vitoria':6 'витория':3 'витория-да-конкиста':2 'да':4 'конкиста':5";-14.8661;-40.8394;1;0
VDE;ES;Valverde;Валверде;74;525;Валверде;Валверде;;Валверде;Валверде;"в Валверде";;0;"'valverde':3 'vde':1 'валверде':2";27.8128;-17.8853;1;0
VDH;VN;"Dong Hoi";"Донг Хой";30;6178;"Донг Хой";"Донг Хой";;"Донг Хой";"Донг Хой";"в Донг Хой";"Донг Хои";0;"'dong':3 'hoi':4 'vdh':1 'донгхой':2";17.515;106.59055;1;0
VDM;AR;Viedma;Виедма;64;5433;Виедме;Виедмы;;Виедмой;Виедму;"в Виедме";;0;"'vdm':1 'viedma':3 'вьедма':2";-40.8;-63;1;0
VDP;VE;"Valle De La Pascua";"Валье Де Ла Пускуа";32;7764;"Валье Де Ла Пускуа";"Валье Де Ла Пускуа";;"Валье Де Ла Пускуа";"Валье Де Ла Пускуа";"в Валье Де Ла Пускуа";;0;"'de':8 'la':9 'pascua':10 'valle':7 'vdp':1 'валье':3 'валье-де-ла-паскуа':2 'де':4 'ла':5 'паскуа':6";9.21667;-66;1;0
VDS;NO;Vadso;Вадсё;66;1750;Вадсё;Вадсё;;Вадсё;Вадсё;"в Вадсё";;0;"'vadso':3 'vds':1 'вадсо':2";70.0731;29.7697;1;0
VDY;IN;Vidyanagar;;104;4738;;;;;;;;0;"'vdy':1 'vidyanagar':2";500;0;0;0
VRK;FI;Varkaus;Варкаус;31;4608;Варкаусу;Варкауса;;Варкаусом;Варкаус;"в Варкаусе";;0;"'varkaus':3 'vrk':1 'варкаус':2";62.3167;27.9167;1;0
VRN;IT;Verona;Верона;56;1113;Вероне;Вероны;"в Верону";Вероной;Верону;"в Вероне";;0;"'verona':3 'vrn':1 'верона':2";45.4342;10.9978;1;0
VRY;NO;Vaeroy;Верёй;67;1751;Верёй;Верёй;;Верёй;Верёй;"в Верёй";Верей;0;"'vaeroy':3 'vry':1 'верой':2";63.7833;8.9;1;0
VSA;MX;Villahermosa;Вильяхермоза;79;6026;Вильяхермозе;Вильяхермозы;;Вильяхермозой;Вильяхермозу;"в Вильяхермозе";;0;"'villahermosa':3 'vsa':1 'вийяхермоса':2";17.9833;-92.9167;1;0
VSE;PT;Viseu;Визеу;21;1963;Визеу;Визеу;;Визеу;Визеу;"в Визеу";;0;"'viseu':3 'vse':1 'визеу':2";40.65;-7.91667;1;0
VSF;US;Springfield;Спрингфилд;1338;3348;Спрингфилду;Спрингфилда;;Спрингфилдом;Спрингфилд;"в Спрингфилде";;0;"'springfield':3 'vsf':1 'спрингфилд':2";42.1015;-72.5898;1;0
VSG;UA;Lugansk;Луганск;20;1278;Луганску;Луганска;"в Луганск";Луганском;Луганск;"в Луганске";;0;"'lugansk':3 'vsg':1 'луганск':2";48.5667;39.3333;1;0
VSO;VN;"Phuoc Long";Пхуоклонг;31;6179;;;;;;;;0;"'long':4 'phuoc':3 'vso':1 'пхуоклонг':2";500;0;0;0
VST;SE;Vasteras;Вестерос;43;1857;Вестеросу;"из Вестероса";"в Вестерос";Вестеросом;Вестерос;"в Вестеросе";;0;"'vasteras':3 'vst':1 'стокгольм':2";59.6167;16.55;1;0
VTB;BY;Vitebsk;Витебск;6;616;Витебску;Витебска;Витебск;Витебском;Витебск;"в Витебске";Белоруссия;0;"'vitebsk':3 'vtb':1 'витебск':2";55.1925;30.1944;1;0
VTE;LA;Vientiane;Вьентьян;1;4836;Вьентьяну;Вьентьяна;"в Вьентьян";Вьентьяном;Вьентьян;"в Вьентьяне";Виентиане;0;"'vientiane':3 'vte':1 'виентиане':2";17.9667;102.6;1;0
VTF;FJ;Vatulele;Ватулеле;20;4633;Ватулеле;"из Ватулеле";"в Ватулеле";Ватулеле;Ватулеле;"в Ватулеле";;0;"'island':4 'vatulele':3 'vtf':1 'ватулеле':2";0;0;1;0
WAC;ET;Waca;Вака;31;7030;;;;;;;;0;"'wac':1 'waca':3 'вака':2";500;37.1667;0;0
CKB;US;Clarksburg;Кларксберг;1385;3395;;;;;;;;0;"'ckb':1 'clarksburg':3 'кларксберг':2";500;-80.3445;0;0
WAD;MG;Adriamena;Андриамена;50;7235;;;;;;;;0;"'adriamena':3 'wad':1 'андриамена':2";500;0;0;0
WAE;SA;"Wadi Al Dawaser";"Уади Ал Даувасер";30;7399;"Уади Ал Даувасеру";"Уади Ал Даувасера";;"Уади Ал Даувасером";"Уади Ал Даувасер";"в Уади Ал Даувасере";;0;"'al':7 'dawaser':8 'wadi':6 'wae':1 'ад':4 'вади':3 'вади-ад-давасир':2 'давасир':5";20.498444;45.20445;1;0
CKC;UA;Cherkassy;Черкассы;21;1279;Черка́ссам;Черка́сс;;Черка́ссами;Черка́ссы;"в Черка́ссах";Черкасы;0;"'cherkassy':3 'ckc':1 'черкассы':2";49.4167;32;1;0
CKD;US;"Crooked Creek";"Крукед Крик";1405;3415;"Крукед Крик";"Крукед Крик";;"Крукед Крик";"Крукед Крик";"в Крукед Крик";;0;"'ckd':1 'creek':3 'crooked':2";61.870834;-158.10083;1;0
CKE;US;"Clear Lake";;1411;3421;;;;;;;;0;"'cke':1 'clear':2 'lake':3";500;0;0;0
AHC;US;Herlong;Херлонг;1419;3429;Херлонгу;Херлонга;;Херлонгом;Херлонг;"в Херлонге";Херлонк;0;"'ahc':1 'herlong':2";0;0;1;0
KSO;GR;Kastoria;Кастория;44;592;Кастории;Кастории;;Касторией;Касторию;"в Кастории";;0;"'kastoria':3 'kso':1 'кастория':2";40.5167;21.2667;1;0
KSP;PG;Kosipe;Косипе;155;6509;;;;;;;;0;"'kosipe':3 'ksp':1 'косипе':2";500;0;0;0
KSQ;UZ;Karshi;Карши;11;1294;Карши;Карши;"в Карши";Карши;Карши;"в Карши";Карша;0;"'karshi':3 'ksq':1 'карши':2";38.8;65.7667;1;0
KSR;ID;"Kepulauan Selayar";"Сэнди Ривер";139;4183;;;;;;;;0;"'kepulauan':2 'ksr':1 'selayar':3";500;-160.23306;0;0
KSU;NO;Kristiansund;Кристиансанд;7;1691;Кристиансанду;Кристиансанда;;Кристиансандом;Кристиансанд;"в Кристиансанде";Кристиансунд;0;"'kristiansund':3 'ksu':1 'кистиансанд':2";63.1147;7.84444;1;0
KSW;IL;"Kiryat Shmona";Кирьят-Шмона;10;608;Кирьяту-Шмоне;Кирьята-Шмоны;;Кирьятом-Шмоной;Кирьята-Шмону;"в Кирьяту-Шмоне";"Кирьят Шмона";0;"'kiryat':5 'ksw':1 'shmona':6 'кирьят':3 'кирьят-шемона':2 'шемона':4";33.2167;35.5667;1;0
CNU;US;Chanute;Чанат;1461;3471;Чанату;"из Чаната";"в Чанат";Чанатом;Чанат;"в Чанате";;0;"'chanute':2 'cnu':1";0;0;1;0
CNX;TH;"Chiang Mai";Чиангмай;3;1974;Чиангмаю;Чиангмая;"в Чиангмай";Чиангмаем;Чиангмай;"в Чиангмае";"Чианг Май,Чангмай, Чианг-Май";0;"'chiang':5 'cnx':1 'mai':6 'май':4 'чанг':3 'чанг-май':2";18.7903;98.9817;1;0
KSY;TR;Kars;Карс;64;1255;Карсу;Карса;;Карсом;Карс;"в Карсе";;0;"'kars':3 'ksy':1 'карс':2";40.6081;43.0975;1;0
CNY;US;Moab;Моаб;1480;3490;Моаб;Моаб;;Моаб;Моаб;"в Моаб";;0;"'cny':1 'moab':3 'моаб':2";38.5733;-109.55;1;0
COA;US;Columbia;Колумбия;1485;3495;;;;;;;;0;"'coa':1 'columbia':3 'колумбия':2";500;0;0;0
KSZ;RU;Kotlas;Котлас;169;169;Котласу;Котласа;"в Котлас";Котласом;Котлас;"в Котласе";;0;"'kotlas':3 'ksz':1 'котлас':2";61.2333;46.7;1;0
COC;AR;Concordia;Конкордия;73;5442;Конкордии;Конкордии;;Конкордией;Конкордию;"в Конкордии";;0;"'coc':1 'concordia':3 'конкордия':2";500;-58.0333;1;0
KTA;AU;Karratha;Каррата;331;5207;Каррате;Карраты;;Карратой;Каррату;"в Каррате";Карата;0;"'karratha':3 'kta':1 'каррата':2";-20.7291;116.855;1;0
COD;US;Cody;Коди;1515;3525;Коди;Коди;;Коди;Коди;"в Коди";;0;"'cod':1 'cody':3 'коди':2";44.5263;-109.057;1;0
KTB;US;"Thorne Bay";"Торн Бэй";1525;3535;"Торн Бэю";"Торн Бэя";;"Торн Бэем";"Торн Бэй";"в Торн Бэе";"Торн Бей";0;"'bay':3 'ktb':1 'thorne':2";55.6878;-132.522;1;0
KTD;JP;Kitadaito;;98;1638;;;;;;;;0;"'kitadaito':2 'ktd':1";500;131.3;0;0
COT;US;Cotulla;;1535;3545;;;;;;;;0;"'cot':1 'cotulla':2";500;0;0;0
BLM;US;"Wall Township";Уолл-Тауншип;1541;3551;Уолл-Тауншипу;"из Уолл-Тауншипа";"в Уолл-Тауншип";Уолл-Тауншипом;Уолл-Тауншип;"в Уолл-Тауншипе";;0;"'belmar':2 'blm':1";0;0;1;0
BMC;US;"Brigham City";Бригам-Сити;1554;3564;Бригам-Сити;Бригам-Сити;;Бригам-Сити;Бригам-Сити;"в Бригам-Сити";"Бригам Сити";0;"'bmc':1 'brigham':2 'city':3";41.5102;-112.016;1;0
BMD;MG;Belo;Бело;53;7238;Бело;Бело;;Бело;Бело;"в Бело";;0;"'belo':3 'bmd':1 'бело':2";-19.7;44.55;1;0
BME;AU;Broome;Брум;342;5218;Бруму;Брума;;Брумом;Брум;"в Бруме";;0;"'bme':1 'broome':3 'брум':2";-17.9667;122.233;1;0
BMG;US;Bloomington;Блумингтон;1571;3581;Блумингтону;Блумингтона;;Блумингтоном;Блумингтон;"в Блумингтоне";;0;"'bloomington':3 'bmg':1 'блумингтон':2";39.14;-86.6147;1;0
BMH;PG;Bomai;Бомаи;173;6527;Бомаи;Бомаи;;Бомаи;Бомаи;"в Бомаи";Бомай;0;"'bmh':1 'bomai':3 'бомай':2";-6.41667;144.583;1;0
BMI;US;Bloomington;Блумингтон;1588;3598;Блумингтону;Блумингтона;;Блумингтоном;Блумингтон;"в Блумингтоне";;0;"'bloomington':3 'bmi':1 'блумингтон':2";40.4819;-88.9275;1;0
BMK;DE;Borkum;Боркум;87;721;Боркуму;Боркума;;Боркумм;Боркум;"в Боркуме";;0;"'bmk':1 'borkum':3 'боркум':2";53.6;6.7;1;0
BML;US;Berlin;Берлин;1605;3615;Берлину;Берлина;;Берлином;Берлин;"в Берлине";;0;"'berlin':3 'bml':1 'берлин':2";0;0;1;0
BMM;GA;Bitam;Битам;24;7066;Битаму;Битама;;Битамом;Битам;"в Битаме";;0;"'bitam':3 'bmm':1 'битам':2";2.08333;11.4833;1;0
BMO;MM;Bhamo;Бамо;28;7277;Бамо;Бамо;;Бамо;Бамо;"в Бамо";Бхамо;0;"'bhamo':3 'bmo':1 'бамо':2";24.2667;97.2333;1;0
BMP;AU;"Brampton Island";Бремптон-Айленд;355;5231;Бремптон-Айленду;Бремптон-Айленда;;Бремптон-Айлендом;Бремптон-Айленд;"в Бремптон-Айленде";"Бремптон Айленд";0;"'bmp':1 'brampton':4 'island':5 'айленд':3 'бремптон':2";-20.8;149.267;1;0
BMS;BR;Brumado;Брумаду;299;3953;Брумаде;"из Брумады";"в Брумаду";Брумадой;Брумаду;"в Брумаде";;0;"'bms':1 'brumado':3 'брумаду':2";0;0;1;0
BMU;ID;Bima;Бима;152;4196;Биме;Бимы;;Бимой;Биму;"в Биме";;0;"'bima':3 'bmu':1 'бима':2";-8.46667;118.717;1;0
BMV;VN;Banmethuot;Буонматхуот;35;6183;Буонматхуоту;Буонматхуота;;Буонматхуотом;Буонматхуот;"в Буонматхуоте";;0;"'banmethuot':3 'bmv':1 'буонметхуот':2";12.6667;108.05;1;0
BMW;DZ;"Bordj Badji Mokhtar";Бордж-Баджи-Мохтар;3;4547;Бордж-Баджи-Мохтару;"из Бордж-Баджи-Мохтара";"в Бордж-Баджи-Мохтар";Бордж-Баджи-Мохтаром;Бордж-Баджи-Мохтар;"в Бордж-Баджи-Мохтаре";"Борд Бадьи Мохтар";0;"'badji':7 'bmw':1 'bordj':6 'mokhtar':8 'бажи':4 'борж':3 'борж-бажи-мохтар':2 'мохтар':5";21.3167;1.03333;1;0
BMX;US;"Big Mountain";Биг-Маунтин;19;2029;Биг-Маунтину;"из Биг-Маунтина";"в Биг-Маунтин";Биг-Маунтином;Биг-Маунтин;"в Биг-Маунтине";;0;"'big':2 'bmx':1 'mountain':3";0;0;1;0
BMY;NC;"Belep Island";"о-в Белеп";5;7568;Белепу;Белепа;;Белепом;Белеп;"в Белепе";"Белеп о-в, о.Белеп";0;"'belep':2 'bmy':1 'island':3";-19.75;163.667;1;0
BNA;US;Nashville;Нашвилл;31;2041;Нашвиллу;Нашвилла;;Нашвиллом;Нашвилл;"в Нашвилле";Нашвил;0;"'bna':1 'nashville':3 'нашвилл':2";36.1659;-86.7844;1;0
BNB;CD;Boende;Боенд;5;6825;Боенду;Боенда;;Боендом;Боенд;"в Боенде";;0;"'bnb':1 'boende':3 'боэнде':2";-0.216667;20.8667;1;0
BND;IR;"Bandar Abbas";Бендер-Аббас;5;6666;Бендер-Аббасу;Бендер-Аббаса;"в Бендер-Аббас";Бендер-Аббасом;Бендер-Аббас;"в Бендер-Аббасе";"Бендер Аббас";0;"'abbas':6 'bandar':5 'bnd':1 'аббас':4 'бандар':3 'бандар-аббас':2";27.1865;56.2808;1;0
KRF;SE;Kramfors;Крамфорс;9;1823;Крамфорсу;Крамфорса;;Крамфорсом;Крамфорс;"в Крамфорсе";;0;"'kramfors':3 'krf':1 'крамфорс':2";62.9333;17.7925;1;0
KRH;GB;Redhill;;11;896;;;;;;;;0;"'krh':1 'redhill':2";500;0;0;0
KRI;PG;Kikori;Кикори;13;6367;;;;;;;;0;"'kikori':3 'kri':1 'кикори':2";500;144.25;0;0
KRJ;PG;Karawari;Каравари;15;6369;Каравари;Каравари;;Каравари;Каравари;"в Каравари";;0;"'karawari':3 'krj':1 'каравари':2";-4.61667;143.517;1;0
KRK;PL;Krakow;Краков;2;1910;Кракову;Кракова;"в Краков";Краковом;Краков;"в Кракове";;0;"'krakow':3 'krk':1 'краков':2";50.0833;19.9167;1;0
KRL;CN;Korla;Корла;49;4264;Корле;Корлы;;Корлой;Корлу;"в Корле";;0;"'korla':3 'krl':1 'корла':2";41.7597;86.1469;1;0
KRN;SE;Kiruna;Кируна;12;1826;Кируне;Кируны;;Кируной;Кируну;"в Кируне";;0;"'kiruna':3 'krn':1 'кируна':2";67.85;20.2167;1;0
KRO;RU;Kurgan;Курган;19;19;Кургану;Кургана;"в Курган";Курганом;Курган;"в Кургане";;0;"'kro':1 'kurgan':3 'курган':2";55.4333;65.3;1;0
KRP;DK;Karup;Каруп;6;1301;Карупу;Карупа;;Карупом;Каруп;"в Карупе";;0;"'karup':3 'krp':1 'каруп':2";56.3067;9.16835;1;0
KRR;RU;Krasnodar;Краснодар;4;4;Краснодару;Краснодара;"в Краснодар";Краснодаром;Краснодар;"в Краснодаре";;0;"'krasnodar':3 'krr':1 'краснодар':2";45.0328;38.9769;1;0
KRS;NO;Kristiansand;Кристиансанн;13;1697;Кристиансанну;Кристиансанна;;Кристиансанном;Кристиансанн;"в Кристиансанне";Кристианстад,Кристиансанд;0;"'kristiansand':3 'krs':1 'кристиансенд':2";58.2031;8.08417;1;0
KRT;SD;Khartoum;Хартум;1;7429;Хартуму;Хартума;"в Хартум";Хартумом;Хартум;"в Хартуме";Хартоум;0;"'khartoum':3 'krt':1 'хартум':2";15.5881;32.5342;1;1
KRU;PG;Kerau;Керау;25;6379;;;;;;;;0;"'kerau':2 'kru':1";500;147.067;0;0
KRW;TM;Turkmanbashi;Туркменбаши;2;6189;Туркменбаши;Туркменбаши;;Туркменбаши;Туркменбаши;"в Туркменбаши";Туркманбаши;0;"'krw':1 'turkmanbashi':3 'туркменбаши':2";40.0833;53.0833;1;0
KRX;PG;Karkar;Каркар;27;6381;Каркару;Каркара;;Каркаром;Каркар;"в Каркаре";;0;"'karkar':5 'krx':1 'кар':3,4 'кар-кар':2";-4.5;145.967;1;0
KSF;DE;Kassel;Кассель;24;658;Касселю;Касселя;"в Кассель";Касселем;Кассель;"в Касселе";Касел,Касель,Кассел;0;"'kassel':3 'ksf':1 'кассел':2";51.3167;9.5;1;0
KSG;PG;Kisengan;Кисенгам;28;6382;Кисенгаму;Кисенгама;;Кисенгамом;Кисенгам;"в Кисенгаме";Кисенган;0;"'kisengan':3 'ksg':1 'кисенгам':2";-6.35;146.717;1;0
KSH;IR;Kermanshah;Керманшах;7;6668;Керманшаху;Керманшаха;;Керманшахом;Керманшах;"в Керманшахе";;0;"'kermanshah':3 'ksh':1 'керманшах':2";34.3142;47.065;1;0
KSK;SE;Karlskoga;Карлскога;14;1828;Карлскоге;Карлскоги;;Карлскогой;Карлскогу;"в Карлскоге";;0;"'karlskoga':3 'ksk':1 'карлскуга':2";59.3333;14.5167;1;0
KSL;SD;Kassala;Кассала;5;7433;Кассале;Кассалы;;Кассалой;Кассалу;"в Кассале";;0;"'kassala':3 'ksl':1 'кассала':2";15.4558;36.3989;1;0
KSM;US;"St Marys";"Сэнт Мэрис";165;2175;"Сэнт Мэрису";"Сэнт Мэриса";;"Сэнт Мэрисом";"Сэнт Мэрис";"в Сэнт Мэрисе";;0;"'ksm':1 'marys':3 'st':2";62.0617;-163.298;1;0
KSN;KZ;Kostanay;Костанай;8;1174;Костанаю;Костаная;"в Костанай";Костанаем;Костанай;"в Костанае";Кустанай,Кастанай;0;"'kostanay':3 'ksn':1 'костанай':2";53.1667;63.5833;1;0
KTE;MY;Kerteh;Кертех;11;6048;Кертеху;Кертеха;;Кертехом;Кертех;"в Кертехе";;0;"'kerteh':3 'kte':1 'кертех':2";4.51667;103.45;1;0
KTJ;KE;"Kichwa Tembo";;9;7091;;;;;;;;0;"'kichwa':2 'ktj':1 'tembo':3";500;0;0;0
KTL;KE;Kitale;Китале;10;7092;Китале;Китале;;Китале;Китале;"в Китале";;0;"'kitale':3 'ktl':1 'китале':2";0.974111;34.959248;1;0
KTM;NP;Kathmandu;Катманду;1;5242;Катманду;Катманду;"в Катманду";Катманду;Катманду;"в Катманду";;0;"'kathmandu':3 'ktm':1 'катманду':2";27.7167;85.3167;1;1
KTN;US;Ketchikan;Кетчикан;204;2214;Кетчикану;Кетчикана;;Кетчиканом;Кетчикан;"в Кетчикане";;0;"'ketchikan':3 'ktn':1 'кетчикан':2";500;-131.646;1;0
KTR;AU;Katherine;Кэтрин;41;4917;;;;;;;;0;"'katherine':3 'ktr':1 'кэтрин':2";500;132.267;0;0
KUK;US;Kasigluk;Кейсиглек;213;2223;Кейсиглеку;Кейсиглека;;Кейсиглеком;Кейсиглек;"в Кейсиглеке";Касиглюк;0;"'kasigluk':2 'kuk':1";60.876087;-162.52124;1;0
KUL;MY;"Kuala Lumpur";Куала-Лумпур;1;6038;Куала-Лумпуру;Куала-Лумпур;"в Куала-Лумпур";Куала-Лумпуром;Куала-Лумпур;"в Куала-Лумпуре";"Куала Лумпур";0;"'kuala':5 'kul':1 'lumpur':6 'куала':3 'куала-лумпур':2 'лумпур':4";3.16667;101.7;1;1
KUM;JP;Yakushima;Якусима;21;1561;;;;;;;;0;"'kum':1 'yakushima':2";500;130.5;0;0
KUN;LT;Kaunas;Каунас;3;1509;Каунасу;Каунаса;"в Каунас";Каунасом;Каунас;"в Каунасе";;0;"'kaunas':3 'kun':1 'каунас':2";54.9;23.9;1;0
KUO;FI;Kuopio;Куопио;5;4582;Куопио;Куопио;;Куопио;Куопио;"в Куопио";;0;"'kuo':1 'kuopio':3 'куопио':2";62.9;27.6833;1;0
KUP;PG;Kupiano;Купиано;41;6395;;;;;;;;0;"'kup':1 'kupiano':3 'купиано':2";500;148.183;0;0
KUS;GL;Kulusuk;Кулусук;16;6566;Кулусуку;Кулусука;;Кулусуком;Кулусук;"в Кулусуке";;0;"'kulusuk':3 'kus':1 'кулусук':2";65.5667;-37.1833;1;0
KUT;GE;Kutaisi;Кутаиси;4;451;Кутаиси;Кутаиси;;Кутаиси;Кутаиси;"в Кутаиси";Котаиси;0;"'kut':1 'kutaisi':3 'кутаиси':2";42.25;42.7;1;0
KUU;IN;Kulu;Кулу;20;4654;;;;;;;;0;"'kulu':2 'kuu':1";500;77.1;0;0
KUV;KR;Gunsan;Кунсан;12;4820;Кунсану;Кунсана;"в Кунсан";Кунсаном;Кунсан;"в Кунсане";Kunsan;0;"'kunsan':3 'kuv':1 'кунсан':2";35.9786;126.711;1;0
KUZ;GL;Kuummiut;;17;6567;;;;;;;;0;"'kuummiut':2 'kuz':1";500;0;0;0
KVA;GR;Kavalla;Кавала;11;559;Кавале;Кавалы;"в Кавалу";Кавалой;Кавалу;"в Кавале";Кавалла;0;"'kavalla':3 'kva':1 'кавала':2";40.9728;24.3419;1;0
KVG;PG;Kavieng;Кавьенг;5;6359;Кавьенгу;Кавьенга;;Кавьенгом;Кавьенг;"в Кавьенге";Кавиенг;0;"'kavieng':3 'kvg':1 'кавьенг':2";-2.56667;150.8;1;0
YXN;CA;"Whale Cove";Уэйл-Ков;114;5560;Уэйл-Кову;Уэйл-Кова;;Уэйл-Ковом;Уэйл-Ков;"в Уэйл-Кове";"Уэйл Ков";0;"'cove':6 'whale':5 'yxn':1 'коув':4 'уэйл':3 'уэйл-коув':2";62.1714;-92.5778;1;0
YXP;CA;Pangnirtung;Пангниртунг;118;5564;Пангниртунгу;Пангниртунга;;Пангниртунгом;Пангниртунг;"в Пангниртунге";;0;"'pangnirtung':3 'yxp':1 'пангниртунг':2";66.1451;-65.7125;1;0
YXQ;CA;"Beaver Creek";"Бивер Крик";121;5567;"Бивер Крику";"Бивер Крика";;"Бивер Криком";"Бивер Крик";"в Бивер Крике";;0;"'beaver':5 'creek':6 'yxq':1 'бивер':3 'бивер-крик':2 'крик':4";0;0;1;0
YXS;CA;"Prince George";"Принс Джордж";125;5571;"Принс Джорджу";"Принс Джорджа";;"Принс Джорджом";"Принс Джордж";"в Принс Джордже";;0;"'george':5 'prince':4 'yxs':1 'джордж':3 'принс':2";53.9166;-122.753;1;0
YXT;CA;Terrace;Террас;128;5574;Террасу;Терраса;;Террасом;Террас;"в Террасе";;0;"'terrace':3 'yxt':1 'террас':2";54.5163;-128.603;1;0
ZBX;HU;Szombathely;Шомбатели;5;1380;Шомбатели;Шомбатели;;Шомбатели;Шомбатели;"в Шомбатели";;0;"'szombathely':3 'zbx':1 'сомбатхей':2";47.2309;16.6216;1;0
ZBY;LA;Sayaboury;Сайабори;6;4841;;;;;;;;0;"'sayaboury':3 'zby':1 'сайабори':2";500;0;0;0
ZCB;DE;Aschaffenburg;Ашаффенбург;106;740;Ашаффенбургу;Ашаффенбурга;"в Ашшафенбург";Ашаффенбургом;Ашаффенбург;"в Ашаффенбурге";Ашафенбург;1;"'aschaffenburg':3 'zcb':1 'ашаффенбург':2";49.9739;9.14917;1;0
ZCC;DE;"Baden Baden";Баден-Баден;107;741;Баден-Баден;Баден-Баден;;Баден-Баден;Баден-Баден;"в Баден-Баден";"Баден Баден";1;"'baden':5,6 'zcc':1 'баден':3,4 'баден-баден':2";48.75;8.25;1;0
ZCD;DE;Bamberg;Бамберг;108;742;Бамбергу;Бамберга;;Бамбергом;Бамберг;"в Бамберге";;1;"'bamberg':3 'zcd':1 'бамберг':2";49.8667;10.8667;1;0
ZCF;DE;Bergheim;Бергейм;109;743;Бергейму;Бергейма;;Бергеймом;Бергейм;"в Бергейме";Бергхейм;1;"'bergheim':2 'zcf':1";50.9557;6.63986;1;0
ZCG;DE;"Bergisch Gladbach";"Бергиш Гладбах";112;746;"Бергиш Гладбаху";"Бергиш Гладбаха";;"Бергиш Гладбахом";"Бергиш Гладбах";"в Бергиш Гладбахе";;1;"'bergisch':4 'gladbach':5 'zcg':1 'бергиш':2 'гладбах':3";0;0;1;0
ZCH;DE;Bergkamen;Бергкамен;115;749;;;;;;;;1;"'bergkamen':3 'zch':1 'бергкамен':2";500;0;0;0
ZCI;DE;Bocholt;Бохольт;117;751;Бохольту;Бохольта;;Бохольтом;Бохольт;"в Бохольте";;1;"'bocholt':3 'zci':1 'бохольт':2";51.8333;6.6;1;0
ZCJ;DE;Bottrop;Боттроп;119;753;Боттропу;Боттропа;;Боттропом;Боттроп;"в Боттропе";Ботроп;1;"'bottrop':3 'zcj':1 'ботроп':2";51.5167;6.91667;1;0
GOO;AU;Goondiwindi;Гундивинди;77;4953;;;;;;;;0;"'goo':1 'goondiwindi':3 'гундивинди':2";500;150.317;0;0
GOP;IN;Gorakhpur;Горахпур;29;4663;Горахпуру;Горахпура;;Горахпуром;Горахпур;"в Горахпуре";Горакхпур;0;"'gop':1 'gorakhpur':3 'горахпур':2";29.45;75.6833;1;0
GOR;ET;Gore;Гор;14;7013;;;;;;;;0;"'gor':1 'gore':3 'гор':2";500;35.5381;0;0
GOS;AU;Gosford;Госфорд;83;4959;Госфорду;Госфорда;;Госфордом;Госфорд;"в Госфорде";;0;"'gos':1 'gosford':3 'госфорд':2";-33.4333;151.35;1;0
GOT;SE;Gothenburg;Гётеборг;2;1816;Гётебургу;Гётебурга;"в Гётебург";Гётебургом;Гётебург;"в Гётебурге";Готенбург,Гётебург,Гетеборг;0;"'got':1 'gothenburg':3 'готенбург':2";57.7072;11.9668;1;0
GOU;CM;Garoua;Гаруа;6;6885;;;;;;;;0;"'garoua':3 'gou':1 'гаруа':2";500;13.4;0;0
GOV;AU;Gove;Гоув;90;4966;;;;;;;;0;"'gov':1 'gove':3 'гоув':2";500;136.767;0;0
GOY;LK;"Gal Oya";Гал-Ойя;8;4861;;;;;;;;0;"'gal':5 'goy':1 'oya':6 'гал':3 'гал-ойя':2 'ойя':4";500;0;0;0
GOZ;BG;"Gorna Orjahovica";Горна-Оряховица;9;1905;;;;;;;;0;"'gorna':5 'goz':1 'orjahovica':6 'горна':3 'горна-оряховица':2 'оряховица':4";500;25.6667;0;0
GPA;GR;Patras;Патры;18;566;Патрам;Патр;"в Патры";Патрами;Патры;"в Патрах";Патрас;0;"'gpa':1 'patras':3 'патрас':2";38.2444;21.7344;1;0
GPB;BR;Guarapuava;Гуарапуава;106;3760;Гуарапуаве;Гуарапуавы;;Гуарапуавой;Гуарапуаву;"в Гуарапуаве";;0;"'gpb':1 'guarapuava':3 'гуарапуава':2";-25.333332;-51.5;1;0
GPN;AU;"Garden Point";Гарден-Пойнт;96;4972;Гарден-Пойнту;Гарден-Пойнта;;Гарден-Пойнтом;Гарден-Пойнт;"в Гарден-Пойнте";"Гарден Поинт";0;"'garden':4 'gpn':1 'point':5 'гарден':2 'поинт':3";-11.7667;130.017;1;0
GPO;AR;"General Pico";Хенераль-Пико;25;5394;Хенераль-Пико;Хенераль-Пико;;Хенераль-Пико;Хенераль-Пико;"в Хенераль-Пико";"Хенераль Пико";0;"'general':5 'gpo':1 'pico':6 'пико':4 'хенераль':3 'хенераль-пико':2";-35.6667;-63.7333;1;0
GPS;EC;"Galapagos Is";"Галапагосские острова";12;3967;"Галапагосским островам";"Галапагосских островов";"Галапагосские острова";"Галапагосскими островами";"Галапагосские острова";"на Галапагосских островах";"Галапогосские о-ва";0;"'galapagos':2 'gps':1 'is':3";-0.434722;-90.2828;1;0
GPT;US;Gulfport;Галфпорт;467;2477;Галфпорту;Галфпорта;;Галфпортом;Галфпорт;"в Галфпорте";;0;"'gpt':1 'gulfport':2";30.3674;-89.0928;1;0
COH;IN;"Cooch Behar";Куч-Бехар;35;4669;Куч-Бехару;Куч-Бехара;;Куч-Бехаром;Куч-Бехар;"в Куч-Бехаре";"Куч Бехар";0;"'behar':6 'coh':1 'cooch':5 'бехар':4 'куч':3 'куч-бехар':2";26.3167;89.4333;1;0
GRE;US;Greenville;Гринвилл;478;2488;;;;;;;;0;"'gre':1 'greenville':3 'гринвилл':2";500;0;0;0
GRI;US;"Grand Island";Гранд-Айленд;490;2500;;;;;;;;0;"'grand':5 'gri':1 'island':6 'айленд':4 'гранд':3 'гранд-айленд':2";500;-98.342;0;0
COR;AR;Cordoba;Кордова;4;5373;;;;;;;;0;"'cor':1 'cordoba':3 'кордова':2";500;-64.1833;0;0
COS;US;"Colorado Springs";Колорадо-Спрингс;504;2514;Колорадо-Спрингс;Колорадо-Спрингс;;Колорадо-Спрингс;Колорадо-Спрингс;"в Колорадо-Спрингс";"Колорадо Спрингс";0;"'colorado':4 'cos':1 'springs':5 'колорадо':2 'спрингз':3";500;-104.821;1;0
COU;US;Columbia;Колумбия;511;2521;;;;;;;;0;"'columbia':3 'cou':1 'колумбия':2";500;-92.2192;0;0
COW;CL;Coquimbo;Кокимбо;16;5905;Кокимбо;Кокимбо;;Кокимбо;Кокимбо;"в Кокимбо";;0;"'coquimbo':3 'cow':1 'кокимбо':2";-29.9533;-71.3436;1;0
COX;BS;"Congo Town";Конго-Таун;19;6780;;;;;;;;0;"'congo':5 'cox':1 'town':6 'конго':3 'конго-таун':2 'таун':4";500;0;0;0
ZCR;DE;Dachau;Дахау;137;771;Дахау;Дахау;;Дахау;Дахау;"в Дахау";;1;"'dachau':3 'zcr':1 'дахау':2";48.2667;11.4333;1;0
COZ;DO;Constanza;Констанца;6;4540;;;;;;;;0;"'constanza':3 'coz':1 'констанца':2";500;0;0;0
CPB;CO;Capurgana;Капургана;37;6927;Капургане;Капурганы;;Капурганой;Капургану;"в Капургане";;0;"'capurgana':3 'cpb':1 'капургана':2";8.63333;-77.35;1;0
CPC;AR;Chapelco;Чапелко;29;5398;Чапелко;Чапелко;;Чапелко;Чапелко;"в Чапелко";;0;"'chapelco':3 'cpc':1 'чапелко':2";-40.1167;-71.2167;1;0
CTA;IT;Catania;Катания;31;1088;Катании;Катании;"в Катанию";Катанией;Катанию;"в Катании";Катанья;0;"'catania':3 'cta':1 'катания':2";37.5021;15.0872;1;0
CTB;US;"Cut Bank";;559;2569;;;;;;;;0;"'bank':3 'ctb':1 'cut':2";500;0;0;0
CTC;AR;Catamarca;Катамарка;33;5402;;;;;;;;0;"'catamarca':3 'ctc':1 'катамарка':2";500;-65.7833;0;0
CTD;PA;Chitre;Читре;14;7310;;;;;;;;0;"'chitre':2 'ctd':1";500;-80.4333;0;0
CTE;PA;Carti;Карти;15;7311;;;;;;;;0;"'carti':3 'cte':1 'карти':2";500;0;0;0
CTG;CO;Cartagena;Картегена;3;6893;;;;;;;;0;"'cartagena':3 'ctg':1 'картегена':2";500;-75.5144;0;0
CTH;US;Coatesville;Коутсвилл;591;2601;;;;;;;;0;"'coatesville':3 'cth':1 'коутсвилл':2";500;0;0;0
CTJ;IT;Caserta;Казерта;34;1091;;;;;;;;0;"'caserta':3 'ctj':1 'казерта':2";500;0;0;0
CTL;AU;Charleville;Чарлвилл;125;5001;;;;;;;;0;"'charleville':3 'ctl':1 'чарлвилл':2";500;146.25;0;0
CTS;JP;"Sapporo City";Саппоро;106;1646;;;;;;;;1;"'city':4 'cts':1 'sapporo':3 'саппоро':2";500;0;0;0
CTT;PA;"Le Castellet";"Ле Кастелле";16;7312;"Ле Кастелле";"из Ле Кастелле";"в Ле Кастелле";"Ле Кастелле";"Ле Кастелле";"в Ле Кастелле";;0;"'cristobal':2 'ctt':1 'only':7 'pick':5 'pick-up':4 'tour':3 'up':6";0;0;1;0
CTU;CN;Chengdu;Чэнду;7;4222;Чэнду;Чэнду;"в Чэнду";Чэнду;Чэнду;"в Чэнду";"Ченгджу, Ченгду";0;"'chengdu':3 'ctu':1 'ченгду':2";30.6667;104.067;1;0
PGD;US;"Punta Gorda";Пунта-Горда;628;2638;Пунта-Горда;Пунта-Горда;;Пунта-Горда;Пунта-Горда;"в Пунта-Горде";"Пунта горда";0;"'gorda':6 'pgd':1 'punta':5 'горда':4 'пунта':3 'пунта-горда':2";26.9298;-82.0454;1;0
PGH;IN;Pantnagar;Пантнагар;54;4688;Пантнагару;Пантнагара;;Пантнагаром;Пантнагар;"в Пантнагаре";;0;"'pantnagar':3 'pgh':1 'пантнагар':2";29.05;79.5167;1;0
PGK;ID;Pangkalpinang;Пангкалпинанг;61;4105;Пангкалпинангу;Пангкалпинанга;;Пангкалпинангом;Пангкалпинанг;"в Пангкалпинанге";;0;"'pangkalpinang':3 'pgk':1 'пангкалпинанг':2";-2.13333;106.133;1;0
PGL;US;Pascagoula;Паскагула;645;2655;Паскагуле;Паскагулы;;Паскагулой;Паскагулу;"в Паскагуле";;0;"'pascagoula':3 'pgl':1 'паскагула':2";30.3658;-88.5561;1;0
PGM;US;"Port Graham";"Порт Грахам";651;2661;"Порт Грахаму";"Порт Грахама";;"Порт Грахамом";"Порт Грахам";"в Порт Грахаме";;0;"'graham':3 'pgm':1 'port':2";59.35;-151.83333;1;0
PGO;US;"Pagosa Springs";Пагоса-Спрингс;659;2669;Пагоса-Спрингсу;Пагоса-Спрингса;;Пагоса-Спрингсом;Пагоса-Спрингс;"в Пагоса-Спрингсе";"Пагоса Спрингс";0;"'pagosa':2 'pgo':1 'springs':3";37.2694;-107.01;1;0
PGR;US;Paragould;Парагалд;665;2675;Парагалду;Парагалда;;Парагалдом;Парагалд;"в Парагалде";;0;"'paragould':3 'pgr':1 'парагулд':2";0;0;1;0
PGS;US;"Peach Springs";Пич-Спрингс;671;2681;Пич-Спрингсу;Пич-Спрингса;;Пич-Спрингсом;Пич-Спрингс;"в Пич-Спрингсе";"Пич Спрингс";0;"'peach':2 'pgs':1 'springs':3";35.5292;-113.425;1;0
PGV;US;Greenville;Гринвилль;681;2691;Гринвиллю;Гринвилля;;Гринвиллем;Гринвилль;"в Гринвилле";Гринвиль;0;"'greenville':3 'pgv':1 'гринвилл':2";35.6333;-77.3853;1;0
PGX;FR;Perigueux;Перигё;55;253;Перигё;Перигё;;Перигё;Перигё;"в Перигё";Периге;0;"'perigueux':3 'pgx':1 'периге':2";45.1833;0.716667;1;0
PGZ;BR;"Ponta Grossa";Понта-Гросса;149;3803;Понта-Гросса;Понта-Гросса;;Понта-Гросса;Понта-Гросса;"в Понта-Гросса";"Понта Гроса";0;"'grossa':6 'pgz':1 'ponta':5 'гроса':4 'понта':3 'понта-гроса':2";-25.095;-50.1619;1;0
PHB;BR;Parnaiba;Парнаиба;152;3806;Парнаибе;Парнаибы;;Парнаибой;Парнаибу;"в Парнаибе";;0;"'parnaiba':3 'phb':1 'парнаиба':2";-2.90472;-41.7767;1;0
PHC;NG;"Port Harcourt";Порт-Харкорт;15;7591;Порт-Харкорту;Порт-Харкорта;;Порт-Харкортом;Порт-Харкорт;"в Порт-Харкорте";"Порт Харкорт";0;"'harcourt':5 'phc':1 'port':4 'порт':2 'харкорт':3";4.78917;6.99861;1;0
PHD;US;"New Philadelphia";Нью-Филадельфия;710;2720;;;;;;;;0;"'new':5 'phd':1 'philadelphia':6 'нью':3 'нью-филадельфия':2 'филадельфия':4";500;0;0;0
PHE;AU;"Port Hedland";"Порт Хедленд";152;5028;"Порт Хедленду";"Порт Хедленда";;"Порт Хедлендом";"Порт Хедленд";"в Порт Хедленде";;0;"'hedland':5 'phe':1 'port':4 'порт':2 'хидланд':3";-20.3167;118.567;1;0
PHF;US;"Newport News";Ньюпорт-Ньюс;728;2738;Ньюпорт-Ньюсу;Ньюпорт-Ньюса;;Ньюпорт-Ньюсом;Ньюпорт-Ньюс;"в Ньюпорт-Ньюсе";"Ньюпорт  Ньюс";0;"'newport':5 'news':6 'phf':1 'ньюпорт':3 'ньюпорт-ньюс':2 'ньюс':4";36.9788;-76.428;1;0
PHQ;AU;"Phosphate Hill";"Фосфат Хилл";157;5033;;;;;;;;0;"'hill':5 'phosphate':4 'phq':1 'фосфат':2 'хилл':3";500;0;0;0
PHR;FJ;"Pacific Harbour";Писифик-Харбор;9;4622;;;;;;;;0;"'harbour':3 'pacific':2 'phr':1";500;178.05;0;0
ABF;KI;Abaiang;Абайянг;9;7131;Абайянгу;Абайянга;;Абайянгом;Абайянг;"в Абайянге";Абаянг;0;"'abaiang':3 'abf':1 'абайянг':2";1.67083;173.304;1;0
PHS;TH;Phitsanulok;Пхитсанулок;23;1994;Пхитсанулоку;Пхитсанулока;;Пхитсанулоком;Пхитсанулок;"в Пхитсанулоке";;0;"'phitsanulok':3 'phs':1 'пхитсанусок':2";16.8333;100.25;1;0
PHT;US;Paris;Париж;769;2779;Парижу;Парижа;;Парижем;Париж;"в Париже";;0;"'paris':3 'pht':1 'париж':2";36.3336;-88.3833;1;0
PHW;ZA;Phalaborwa;Фалаборва;34;6258;Фалаборве;Фалаборвы;;Фалаборвой;Фалаборву;"в Фалаборве";;0;"'phalaborwa':3 'phw':1 'фалаборва':2";-23.95;31.1167;1;0
PHX;US;Phoenix;Финикс;786;2796;Финиксу;Финикса;"в Финикс";Финиксом;Финикс;"в Финиксе";"Феникс, Фоеникс";0;"'phoenix':3 'phx':1 'феникс':2";33.4484;-112.074;1;0
PIA;US;Peoria;Пеория;798;2808;;;;;;;;0;"'peoria':3 'pia':1 'пеория':2";500;-89.589;0;0
PIF;TW;Pingtung;Пиндун;11;6216;Пиндуну;"из Пиндуна";"в Пиндун";Пиндуном;Пиндун;"в Пиндуне";;0;"'pif':1 'pingtung':3 'пиндун':2";22.705004;120.490234;1;0
PIH;US;Pocatello;Покателло;809;2819;Покателло;Покателло;;Покателло;Покателло;"в Покателло";Покатело;0;"'pih':1 'pocatello':3 'покателло':2";42.8713;-112.446;1;0
PIN;BR;Parintins;Паринтинс;164;3818;;;;;;;;0;"'parintins':3 'pin':1 'паринтинс':2";500;-56.7358;0;0
PIO;PE;Pisco;Писко;3;5333;Писко;Писко;;Писко;Писко;"в Писко";;0;"'pio':1 'pisco':3 'писко':2";-13.75;-76.21667;1;0
PIP;US;"Pilot Point";"Пилот Поинт";827;2837;"Пилот Поинту";"Пилот Поинта";;"Пилот Поинтом";"Пилот Поинт";"в Пилот Поинте";;0;"'pilot':2 'pip':1 'point':3";33.3965;-96.9606;1;0
PIR;US;Pierre;Пирр;837;2847;;;;;;;;0;"'pierre':3 'pir':1 'пирр':2";500;-100.351;0;0
PIS;FR;Poitiers;Пуатье;68;266;;;;;;;;0;"'pis':1 'poitiers':3 'пуатье':2";500;0.333333;0;0
PKB;US;Parkersburg;Паркерсбург;849;2859;Паркерсбургу;Паркерсбурга;;Паркерсбургом;Паркерсбург;"в Паркерсбурге";;0;"'parkersburg':3 'pkb':1 'паркерсбург':2";39.2667;-81.5615;1;0
PKE;AU;Parkes;Паркес;187;5063;Паркесу;Паркеса;;Паркесом;Паркес;"в Паркесе";;0;"'parkes':3 'pke':1 'паркес':2";-33.1333;148.183;1;0
PKG;MY;Pangkor;Пангкор;33;6070;Пангкору;Пангкора;;Пангкором;Пангкор;"в Пангкоре";;0;"'pangkor':2 'pkg':1";4.21667;100.567;1;0
PKH;GR;Portoheli;Портоэли;25;573;Портоэли;Портоэли;;Портоэли;Портоэли;"в Портоэли";;0;"'pkh':1 'portoheli':2";37.3014;23.1472;1;0
PLX;KZ;Semipalatinsk;Семипалатинск;15;1181;Семипалатинску;Семипалатинска;Семипалатинск;Семипалатинском;Семипалатинск;Семипалатинске;;0;"'plx':1 'semipalatinsk':3 'семипалатинск':2";50.3333;80.25;1;0
AGQ;GR;Agrinion;Агринион;26;574;Агриниону;Агриниона;;Агринионом;Агринион;"в Агринионе";;0;"'agq':1 'agrinion':3 'агринио':2";0;0;1;0
PTH;US;"Port Heiden";"Порт Хейден";895;2905;"Порт Хейдену";"Порт Хейдена";;"Порт Хейденом";"Порт Хейден";"в Порт Хейдене";"Порт Хейдн";0;"'heiden':3 'port':2 'pth':1";56.9492;-158.627;1;0
PTI;AU;"Port Douglas";Порт-Дуглас;196;5072;Порт-Дугласу;Порт-Дугласа;;Порт-Дугласом;Порт-Дуглас;"в Порт-Дугласе";"Порт Дуглас";0;"'douglas':5 'port':4 'pti':1 'дуглас':3 'порт':2";-16.4833;145.467;1;0
AGR;IN;Agra;Агра;81;4715;Агре;Агры;;Агрой;Агру;"в Агре";;0;"'agr':1 'agra':3 'агра':2";27.1833;78.0167;1;0
AGS;US;Augusta;Аугуста;906;2916;Аугусте;Аугусты;;Аугустой;Аугусту;"в Аугусте";;0;"'ags':1 'augusta':3 'огаста':2";33.3664;-81.9669;1;0
AGT;PY;"Ciudad Del Este";Сиудад-дель-Эсте;2;6537;Сиудад-дель-Эсте;Сиудад-дель-Эсте;;Сиудад-дель-Эсте;Сиудад-дель-Эсте;"в Сиудад-дель-Эсте";"Сиудад дель Эсте";0;"'agt':1 'ciudad':6 'del':7 'este':8 'дель':4 'кудад':3 'кудад-дель-эсте':2 'эсте':5";-25.5167;-54.6167;1;0
AGU;MX;Aguascalientes;Агуаскалиентес;53;6000;;;;;;;;0;"'agu':1 'aguascalientes':3 'агуаскалиентес':2";500;-102.3;0;0
AJI;TR;Agri;Агры;44;1235;;;;;;;;0;"'agri':3 'aji':1 'агры':2";39.65;43.025;1;0
AJL;IN;Aizawl;Айзавл;84;4718;Айзавлу;Айзавла;;Айзавлом;Айзавл;"в Айзавле";Аизавл;0;"'aizawl':3 'ajl':1 'айзаул':2";500;92.7167;1;0
ALI;US;Alice;;933;2943;;;;;;;;0;"'ali':1 'alice':2";500;0;0;0
ALM;US;Alamogordo;Аламогордо;937;2947;;;;;;;;0;"'alamogordo':3 'alm':1 'аламогордо':2";500;-105.96;0;0
ALN;US;Alton;Элтон;945;2955;Элтону;Элтона;;Элтоном;Элтон;"в Элтоне";Алтон;0;"'aln':1 'alton':2";38.8906;-90.1843;1;0
ALO;US;Waterloo;Ватерло;952;2962;;;;;;;;0;"'alo':1 'waterloo':3 'ватерло':2";500;-92.3997;0;0
ALP;SY;Aleppo;Алеппо;3;7656;Алеппо;Алеппо;;Алеппо;Алеппо;"в Алеппо";Алепо;0;"'aleppo':3 'alp':1 'алеппо':2";36.2028;37.1586;1;0
GRJ;ZA;George;Джордж;5;6229;Джорджу;Джорджа;;Джорджом;Джордж;"в Джордже";;0;"'george':3 'grj':1 'джордж':2";-33.9667;22.45;1;0
ALQ;BR;Alegrete;Алегрете;191;3845;Алегрете;"из Алегрете";"в Алегрете";Алегрете;Алегрете;"в Алегрете";;0;"'alegrete':3 'alq':1 'алегрети':2";0;0;1;0
GRM;US;"Grand Marais";"Большой Марэйс";976;2986;"Большой Марэйсу";"Большой Марэйса";;"Большой Марэйсом";"Большой Марэйс";"в Большой Марэйсе";"Гранд Марэйс";0;"'grand':5 'grm':1 'marais':6 'гранд':3 'гранд-марей':2 'марей':4";47.7504;-90.3343;1;0
ALR;NZ;Alexandra;Александра;34;5300;Александре;Александры;;Александрой;Александру;"в Александре";Алехандра;0;"'alexandra':3 'alr':1 'александра':2";-45.2139;169.369;1;0
GRN;US;Gordon;Гордон;985;2995;Гордону;Гордона;;Гордоном;Гордон;"в Гордоне";;0;"'gordon':2 'grn':1";0;0;1;0
GRO;ES;Gerona;Жирона;65;516;Жироне;Жироны;;Жероной;Жирону;"в Жироне";"Герона, Херона";0;"'girona':3 'gro':1 'герона':2";500;2.82493;1;0
ALS;US;Alamosa;Аламоса;998;3008;Аламосе;Аламосы;;Аламосой;Аламосу;"в Аламосе";Аламоза;0;"'alamosa':3 'als':1 'аламоса':2";37.4694;-105.87;1;0
EMD;AU;Emerald;Эмеральд;226;5102;;;;;;;;0;"'emd':1 'emerald':3 'эмеральд':2";500;148.167;0;0
EME;DE;Emden;Эмден;68;702;Эмдену;Эмдена;;Эмденом;Эмден;"в Эмдене";Емден;0;"'emden':3 'eme':1 'эмден':2";53.3667;7.21667;1;0
EMG;ZA;EMPANGENI;Эмпангени;44;6268;;;;;;;;0;"'emg':1 'empangeni':3 'эмпангени':2";500;0;0;0
EMI;PG;Emirau;Эмирау;112;6466;Эмирау;Эмирау;;Эмирау;Эмирау;"в Эмирау";Емирау;0;"'emi':1 'emirau':3 'эмирау':2";-1.65;149.983;1;0
EMK;US;Emmonak;Эммонак;1035;3045;Эммонаку;Эммонака;;Эммонаком;Эммонак;"в Эммонаке";Еммонак;0;"'emk':1 'emmonak':2";62.7778;-164.523;1;0
EML;CH;Emmen;Эммен;10;1405;Эммену;"из Эммена";"в Эммен";Эмменом;Эммен;"в Эммене";;0;"'eml':1 'emmen':3 'люцерн':2";0;0;1;0
EMN;MR;Nema;Нэма;9;7520;Нэме;Нэмы;;Нэмой;Нэму;"в Нэме";Нема;0;"'emn':1 'nema':3 'нема':2";16.6;-7.28333;1;0
EQS;AR;Esquel;Эскель;54;5423;Эскелю;Эскеля;;Эскелем;Эскель;"в Эскеле";;0;"'eqs':1 'esquel':3 'эскель':2";-42.9;-71.3167;1;0
ERC;TR;Erzincan;Эрзинкан;49;1240;;;;;;;;0;"'erc':1 'erzincan':3 'эрзинкан':2";500;39.4928;0;0
ERF;DE;Erfurt;Эрфурт;72;706;Эрфурту;Эрфурта;"в Эрфурт";Эрфуртом;Эрфурт;"в Эрфурте";;0;"'erf':1 'erfurt':3 'эрфурт':2";50.9833;11.0333;1;0
ERH;MA;Errachidia;Эр-Рашидия;17;3998;;;;;;;;0;"'erh':1 'errachidia':5 'рашидия':4 'эр':3 'эр-рашидия':2";500;-4.4;0;0
ERI;US;Erie;Эри;1077;3087;Эри;Эри;;Эри;Эри;"в Эри";;0;"'eri':1 'erie':3 'эри':2";42.1292;-80.0851;1;0
ERL;CN;"Erenhot Shi";Эрэн-Хото;215;4430;;;;;;;"Эрэн Хото";0;"'erenhot':2 'erl':1";-25.25;133.2;1;0
ERM;BR;Erechim;Эрешин;208;3862;;;;;;;;0;"'erechim':3 'erm':1 'эрешин':2";-27.641666;-52.275555;1;0
ERN;BR;Eirunepe;Эйрунепе;210;3864;;;;;;;;0;"'eirunepe':3 'ern':1 'эйрунепе':2";-6.583333;-69.88333;1;0
ERO;US;"Eldred Rock";;1101;3111;;;;;;;;0;"'eldred':2 'ero':1 'rock':3";500;0;0;0
ERT;MN;Erdenet;;11;7288;;;;;;;;0;"'erdenet':2 'ert':1";500;0;0;0
ERU;PG;Erume;Эрум;120;6474;Эруму;Эрума;;Эрумом;Эрум;"в Эруме";;0;"'eru':1 'erume':3 'эруме':2";-8.41667;147.083;1;0
ERV;US;Kerrville;Керрвилль;1121;3131;Керрвиллю;Керрвилля;;Керрвиллем;Керрвилль;"в Керрвилле";Кервиль;0;"'erv':1 'kerrville':2";30.0474;-99.1403;1;0
ERZ;TR;Erzurum;Эрзурум;53;1244;Эрзуруму;Эрзурума;"в Эрзурум";Эрзурумом;Эрзурум;"в Эрзуруме";"Эрзерум, Арзерум";0;"'erz':1 'erzurum':3 'эрзурум':2";39.9086;41.2769;1;0
ESA;PG;"Esa Ala";"Эса Ала";123;6477;"Эса Ала";"Эса Ала";;"Эса Ала";"Эса Ала";"в Эса Ала";;0;"'ala':3 'esa':1,2";-9.73333;150.817;1;0
ESC;US;Escanaba;Эсканаба;1138;3148;;;;;;;;0;"'esc':1 'escanaba':2";500;-87.0646;0;0
ESD;US;"East Sound";"Ист Саунд";1143;3153;"Ист Саунду";"Ист Саунда";;"Ист Саундом";"Ист Саунд";"в Ист Саунде";;0;"'east':2 'esd':1 'sound':3";48.5998;-122.843;1;0
ESE;MX;Ensenada;Энсенада;69;6016;Энсенаде;Энсенады;;Энсенадой;Энсенаду;"в Энсенаде";;0;"'ensenada':3 'ese':1 'энсенада':2";31.8667;-116.617;1;0
ESH;GB;"Shoreham By Sea";Шорехам;91;976;Шорехаму;Шорехама;;Шорехамом;Шорехам;"в Шорехаме";;0;"'by':3 'esh':1 'sea':4 'shoreham':2";0;0;1;0
ESK;TR;Eskisehir;Эскисехир;55;1246;Эскисехиру;Эскисехира;;Эскисехиром;Эскисехир;"в Эскисехире";;0;"'esk':1 'eskisehir':3 'эскишехир':2";500;30.520556;1;0
ETE;ET;Metemma;Метемма;28;7027;метемме;Метеммы;;Метеммой;Метемму;"в Метемме";Метема;0;"'ete':1 'metemma':5 'вуха':4 'генда':3 'генда-вуха':2";12.9667;36.2;1;0
ETL;RU;Svetlaya;Светлая;129;129;;;;;;;;0;"'etl':1 'svetlaya':3 'светлая':2";500;0;0;0
ETN;US;Eastland;;1185;3195;;;;;;;;0;"'eastland':2 'etn':1";500;0;0;0
ETR;EC;"Santa Rosa";;21;3976;;;;;;;;0;"'etr':1 'rosa':3 'santa':2";500;1.684496;0;0
ETS;US;Enterprise;Энтерпрайз;1199;3209;Энтерпрайзу;Энтерпрайза;;Энтерпрайзом;Энтерпрайз;"в Энтерпрайзе";;0;"'enterprise':2 'ets':1";31.3152;-85.8552;1;0
ETZ;FR;"Metz Nancy";"Метц Нанси";94;292;"Метц Нанси";"Метц Нанси";;"Метц Нанси";"Метц Нанси";"в Метц Нанси";"Метц Нэнси";0;"'etz':1 'metz':6 'nancy':7 'лорран':5 'мец':3 'мец-нанси-лорран':2 'нанси':4";48.9792;6.24778;1;0
EUA;TO;"Eua To";"Эва ту";4;7683;"Эва ту";"Эва ту";;"Эва ту";"Эва ту";"в Эва ту";"Ева ту";0;"'eua':1,3 'to':4 'эуа':2";-21.3758;-174.959;1;0
EUF;US;Eufaula;Эуфола;1216;3226;;;;;;;;0;"'euf':1 'eufaula':2";500;-85.1455;0;0
EUG;US;Eugene;Юджин;1225;3235;;;;;;;;0;"'eug':1 'eugene':3 'юджин':2";500;-123.087;0;0
EWB;US;"New Bedford";"Нью Бедфорд";1234;3244;"Нью Бедфорду";"Нью Бедфорда";;"Нью Бедфордом";"Нью Бедфорд";"в Нью Бедфорде";;0;"'bedford':6 'ewb':1 'new':5 'бедфорд':4 'нью':3 'нью-бедфорд':2";41.6362;-70.9342;1;0
EWD;US;"Wildman Lake";"Вайлдмен Лэйк";1243;3253;"Вайлдмен Лэйку";"Вайлдмен Лэйка";;"Вайлдмен Лэйком";"Вайлдмен Лэйк";"в Вайлдмен Лэйке";"Вайлдмен оз.";0;"'ewd':1 'lake':3 'wildman':2";56.45639;-159.76222;1;0
EWE;ID;Ewer;Эвер;123;4167;Эверу;"из Эвера";"в Эвер";Эвером;Эвер;"в Эвере";;0;"'ewe':1 'ewer':3 'эвер':2";0;0;1;0
EWI;ID;Enarotali;Энаротали;125;4169;Энаротали;Энаротали;;Энаротали;Энаротали;"в Энаротали";Енаротали;0;"'enarotali':3 'ewi':1 'энаротали':2";-3.91667;136.35;1;0
EWK;US;Newton;Ньютон;1265;3275;Ньютону;Ньютона;;Ньютоном;Ньютон;"в Ньютоне";;0;"'ewk':1 'newton':3 'ньютон':2";38.0333;-97.3667;1;0
EWN;US;"New Bern";"Нью Берн";1274;3284;"Нью Берну";"Нью Берна";;"Нью Берном";"Нью Берн";"в Нью Берне";;0;"'bern':5 'ewn':1 'new':4 'берн':3 'нью':2";35.1085;-77.0441;1;0
KTS;US;"Brevig Mission";"Бревиг Миссион";1283;3293;"Бревиг Миссиону";"Бревиг Миссиона";;"Бревиг Миссионом";"Бревиг Миссион";"в Бревиг Миссионе";"Бревиг Мишн";0;"'brevig':5 'kts':1 'mission':6 'бревиг':3 'бревиг-мишн':2 'мишн':4";65.3347;-166.489;1;0
GRP;BR;Gurupi;Гурупи;234;3888;Гурупи;Гурупи;;Гурупи;Гурупи;"в Гурупи";;0;"'grp':1 'gurupi':3 'гурупи':2";-11.7292;-49.0686;1;0
GRQ;NL;Groningen;Гронинген;17;1666;Гронингену;Гронингена;;Гронингеном;Гронинген;"в Гронингене";;0;"'groningen':3 'grq':1 'гронинген':2";53.2192;6.56667;1;0
GRR;US;"Grand Rapids";"Гранд Рапидс";1300;3310;"Гранд Рапидсу";"Гранд Рапидса";;"Гранд Рапидсом";"Гранд Рапидс";"в Гранд Рапидсе";;0;"'grand':5 'grr':1 'rapids':6 'гранд':3 'гранд-рапидс':2 'рапидс':4";42.8811;-85.5242;1;0
GRS;IT;Grosseto;Гросето;55;1112;Гросето;Гросето;;Гросето;Гросето;"в Гросето";;0;"'grosseto':3 'grs':1 'гроссето':2";42.7714;11.1079;1;0
EWR;US;Newark;Ньюарк;1312;3322;Ньюарку;Ньюарка;"в Ньюарк";Ньюарком;Ньюарк;"в Ньюарке";Неварк;0;"'ewr':1 'newark':3 'ньюарк':2";40.7357;-74.1724;1;0
EWY;GB;Newbury;Ньюбери;102;987;Ньюбери;Ньюбери;;Ньюбери;Ньюбери;"в Ньюбери";Ньюбури;0;"'ewy':1 'newbury':2";51.4;-1.31667;1;0
EXI;US;"Excursion Inlet";"Экскуршен Инлет";1325;3335;"Экскуршен Инлету";"Экскуршен Инлета";;"Экскуршен Инлетом";"Экскуршен Инлет";"в Экскуршен Инлете";"Экскуршн Инлет";0;"'excursion':2 'exi':1 'inlet':3";58.4189;-135.427;1;0
FAO;PT;Faro;Фаро;4;1946;Фаро;Фаро;"в Фаро";Фаро;Фаро;"в Фаро";;0;"'fao':1 'faro':3 'фаро':2";37.0167;-7.93333;1;0
FHU;US;"Ft Huachuca";Сьерра-Виста;1339;3349;;;;;;;;0;"'fhu':1 'ft':5 'huachuca':6 'виста':4 'сьерра':3 'сьерра-виста':2";500;-110.343;0;0
GRT;PK;Gujrat;Гуджрат;34;7636;;;;;;;;0;"'grt':1 'gujrat':3 'гуджрат':2";500;0;0;0
GRU;BR;Guarulhos;"Сао Паоло";3;3657;;;;;;;;0;"'gru':1 'guarulhos':4 'паоло':3 'сао':2";500;0;0;0
GRV;RU;Grozny;Грозный;147;147;Грозному;Грозного;"в Грозный";Грозным;Грозный;"в Грозном";;0;"'grozny':3 'grv':1 'грозный':2";43.3333;45.75;1;0
GRW;PT;"Graciosa Island";Грасиоса-Айленд;23;1965;Грасиоса-Айленду;Грасиоса-Айленда;;Грасиоса-Айлендом;Грасиоса-Айленд;"в Грасиоса-Айленде";"Грасиоса Айленд";0;"'graciosa':2 'grw':1 'island':3";39.05;-28.05;1;0
KUG;AU;"Kubin Island";Кубин-Айленд;306;5182;Кубин-Айленду;Кубин-Айленда;;Кубин-Айлендом;Кубин-Айленд;"в Кубин-Айленде";"Кубин Айленд";0;"'island':6 'kubin':5 'kug':1 'айленд':4 'кубин':3 'кубин-айленд':2";-10.2333;142.3;1;0
GRX;ES;Granada;Гранада;82;533;Гранаде;Гранады;;Гранадой;Гранаду;"в Гранаде";;0;"'granada':3 'grx':1 'гранада':2";37.1882;-3.60667;1;0
KUH;JP;Kushiro;Куширо;84;1624;Куширо;Куширо;;Куширо;Куширо;"в Куширо";Кусиро;0;"'kuh':1 'kushiro':3 'куширо':2";42.975;144.375;1;0
GRY;IS;Grimsey;Гримсей;27;4792;Гримсею;Гримсея;;Гримсеем;Гримсей;"в Гримсее";Гримси;0;"'grimsey':3 'gry':1 'гримси':2";65.6833;-21.4;1;0
KUI;NZ;"Kawau Island";Кавау-Айленд;47;5313;;;;;;;;0;"'island':6 'kawau':5 'kui':1 'айленд':4 'кавау':3 'кавау-айленд':2";500;0;0;0
GRZ;AT;Graz;Грац;5;1521;Грацу;Граца;;Грацом;Грац;"в Граце";Грэц;0;"'graz':3 'grz':1 'грац':2";47.0667;15.45;1;0
BOE;CG;Boundji;Бунджи;15;6870;;;;;;;;0;"'boe':1 'boundji':3 'бунджи':2";500;15.3592;0;0
BOG;CO;Bogota;Богота;1;6891;Боготе;Боготы;"в Боготу";Боготой;Боготу;"в Боготе";;0;"'bog':1 'bogota':3 'богота':2";500;-74.0833;1;1
BOH;GB;Bournemouth;Борнмут;114;999;Борнмуту;Борнмута;;Борнмутом;Борнмут;"в Борнмуте";;0;"'boh':1 'bournemouth':3 'борнмут':2";50.7167;-1.88333;1;0
BOI;US;Boise;Бойсе;1420;3430;Бойсе;Бойсе;;Бойсе;Бойсе;"в Бойсе";;0;"'boi':1 'boise':3 'бойсе':2";43.6135;-116.203;1;0
BOJ;BG;Bourgas;Бургас;2;1898;Бургасу;Бургаса;"в Бургас";Бургасом;Бургас;"в Бургасе";;0;"'boj':1 'bourgas':3 'бургас':2";42.5;27.4667;1;0
BOK;US;Brookings;;1432;3442;;;;;;;;0;"'bok':1 'brookings':2";500;0;0;0
BOM;IN;Mumbai;Мумбаи;2;4636;Мумбаи;Мумбаи;"в Мумбаи";Мумбаи;Мумбаи;"в Мумбаи";Бомбей;0;"'bom':1 'mumbai':3 'мумбаи':2";19.0144;72.8479;1;0
BON;BQ;Bonaire;Бонайре;1;6759;Бонайре;Бонайре;;Бонайре;Бонайре;"в Бонайре";;0;"'bon':1 'bonaire':3 'бонэйр':2";12.2;-68.25;1;0
BOO;NO;Bodo;Бодо;69;1753;Бодо;Бодо;;Бодо;Бодо;"в Бодо";;0;"'bodo':3 'boo':1 'бодо':2";67.2833;14.3833;1;0
BOR;FR;Belfort;Белфорт;118;316;;;;;;;;0;"'belfort':3 'bor':1 'белфорт':2";500;6.86667;0;0
BOS;US;Boston;Бостон;1462;3472;Бостону;Бостона;"в Бостон";Бостоном;Бостон;"в Бостоне";;0;"'bos':1 'boston':3 'бостон':2";42.3584;-71.0598;1;0
BOT;PG;Bosset;Боссет;164;6518;Боссету;Боссета;;Боссетом;Боссет;"в Боссете";Босет;0;"'bosset':2 'bot':1";0;0;1;0
BSU;CD;Basankusu;Басанкусу;28;6848;Басанкусу;Басанкусу;;Басанкусу;Басанкусу;"в Басанкусу";;0;"'basankusu':2 'bsu':1";1.23333;19.8;1;0
BSW;US;"Boswell Bay";;1481;3491;;;;;;;;0;"'bay':3 'boswell':2 'bsw':1";500;0;0;0
BSX;MM;Bassein;Бассейн;24;7273;;;;;;;;0;"'bassein':3 'bsx':1 'бассейн':2";16.8;94.78333;1;0
BTA;CM;Bertoua;Бертуа;10;6889;Бертуа;Бертуа;;Бертуа;Бертуа;"в Бертуа";Бертоа;0;"'bertoua':3 'bta':1 'бертуа':2";4.58333;13.6833;1;0
BTC;LK;Batticaloa;Баттикалоа;23;4876;;;;;;;;0;"'batticaloa':3 'btc':1 'баттикалоа':2";0;0;1;0
BTF;US;Bountiful;;1507;3517;;;;;;;;0;"'bountiful':2 'btf':1";500;0;0;0
BTH;ID;Batam;Батам;141;4185;;;;;;;;0;"'batam':3 'bth':1 'батам':2";500;104.05;0;0
BTI;US;"Barter Island";"о-в Бартер";1526;3536;Бартеру;Бартера;;Бартером;Бартер;"в Бартере";Бартер;0;"'barter':2 'bti':1 'island':3";70.1181;-143.667;1;0
BTJ;ID;"Banda Aceh";"Банда Асе";8;4052;"Банда Асе";"Банда Асе";;"Банда Асе";"Банда Асе";"в Банда Асе";"Банда Асех";0;"'aceh':5 'banda':4 'btj':1 'асе':3 'банда':2";5.56167;95.3258;1;0
BTK;RU;Bratsk;Братск;174;174;Братску;Братска;"в Братск";Братском;Братск;"в Братске";;0;"'bratsk':3 'btk':1 'братск':2";56.1325;101.614;1;0
BTL;US;"Battle Creek";Бэттл-Крик;1542;3552;Бэттл-Крику;Бэттл-Крика;;Бэттл-Криком;Бэттл-Крик;"в Бэттл-Крике";"Бэттл Крик";0;"'battle':4 'btl':1 'creek':5 'батл':2 'крик':3";42.3212;-85.1797;1;0
BUY;AU;Bunbury;Банбери;340;5216;;;;;;;;0;"'bunbury':3 'buy':1 'банбери':2";500;115.633;0;0
BUZ;IR;Bushehr;Бушехр;49;6710;;;;;;;;0;"'bushehr':3 'buz':1 'бушехр':2";500;50.8385;0;0
BVA;FR;"Beauvais Tille";Париж;125;323;;;;;;;;0;"'beauvais':3 'bva':1 'tille':4 'париж':2";500;0;0;0
BVB;BR;"Boa Vista";"Боа Виста";282;3936;"Боа Висте";"Боа Висты";;"Боа Вистой";"Боа Висту";"в Боа Висте";"Боа Вишта";0;"'boa':5 'bvb':1 'vista':6 'боа':3 'боа-виста':2 'виста':4";2.81972;-60.6733;1;0
AMA;US;Amarillo;Амарилло;1581;3591;;;;;;;;0;"'ama':1 'amarillo':3 'амарилло':2";500;-101.831;0;0
BVC;CV;"Boa Vista";Боавишта;2;7499;Боавиште;Боавишты;;Боавиштой;Боавишту;"в Боавиште";"Боа Виста";0;"'boa':2 'bvc':1 'vista':3";16.0833;-22.8333;1;0
BVE;FR;"Brive La Gaill";"Брив ла Гайард";126;324;"Брив ла Гайарду";"Брив ла Гайарда";;"Брив ла Гайардом";"Брив ла Гайард";"в Брив ла Гайарде";"Брив ла Хайард";0;"'brive':6 'bve':1 'gaill':8 'la':7 'брив':3 'брив-ла-гайард':2 'гайард':5 'ла':4";45.1667;1.53333;1;0
BVG;NO;Berlevag;Берлевог;71;1755;;;;;;;;0;"'berlevag':3 'bvg':1 'берлевог':2";500;29.1;0;0
BVH;BR;Vilhena;Вилена;293;3947;Вилене;Вилены;;Виленой;Вилену;"в Вилене";Вилхена;0;"'bvh':1 'vilhena':3 'вилена':2";-12.7406;-60.1458;1;0
AMB;MG;Ambilobe;Амбилобе;55;7240;;;;;;;;0;"'amb':1 'ambilobe':3 'амбилобе':2";500;0;0;0
AMD;IN;Ahmedabad;Ахмадабад;128;4762;Ахмадабаду;Ахмадабада;"в Ахмадабад";Ахмадабадом;Ахмадабад;"в Ахмадабаде";"Ахмедабат, Ахмедабад";0;"'ahmedabad':3 'amd':1 'ахмедабад':2";23.0333;72.6167;1;0
GSY;GB;Grimsby;Гримсби;130;1015;Гримсби;Гримсби;;Гримсби;Гримсби;"в Гримсби";Гримсбай;0;"'grimsby':3 'gsy':1 'гримсби':2";53.5333;-0.05;1;0
BVI;AU;Birdsville;Бирдсвилл;360;5236;Бирдсвиллу;Бирдсвилла;;Бирдсвиллом;Бирдсвилл;"в Бирдсвилле";Бридсвил;0;"'birdsville':3 'bvi':1 'бирдсвилл':2";-25.9;139.367;1;0
BVJ;RU;Bovanenkovo;;186;186;;;;;;;;0;"'bovanenkovo':2 'bvj':1";500;0;0;0
GTA;SB;Gatokae;Гатокае;6;7408;;;;;;;;0;"'gatokae':2 'gta':1";-8.766667;158.18333;1;0
GTB;MY;Genting;Гентинг;6;6043;Гентингу;Гентинга;;Гентингом;Гентинг;"в Гентинге";;0;"'genting':3 'gtb':1 'гентинг':2";2.11667;111.7;1;0
GTC;BS;"Green Turtle";"Грин Туртле";5;6766;;;;;;;;0;"'green':4 'gtc':1 'turtle':5 'грин':2 'туртле':3";500;0;0;0
GTE;AU;"Groote Eylandt";Грут-Эйландт;7;4883;Грут-Эйландту;Грут-Эйландта;;Грут-Эйландтом;Грут-Эйландт;"в Грут-Эйландте";"Грут Эйландт";0;"'eylandt':6 'groote':5 'gte':1 'айленд':4 'грут':3 'грут-айленд':2";-13.9722;136.453;1;0
GTF;US;"Great Falls";"Грейт Фоллз";40;2050;"Грейт Фоллзу";"Грейт Фоллза";;"Грейт Фоллзом";"Грейт Фоллз";"в Грейт Фоллзе";"Грейт Фолз";0;"'falls':6 'great':5 'gtf':1 'грейт':3 'грейт-фолс':2 'фолс':4";47.5002;-111.301;1;0
GTI;DE;Guettin;Гюттин;17;651;;;;;;;;0;"'gti':1 'guettin':3 'гюттин':2";500;12.3167;0;0
GTN;NZ;"Mt Cook";"Маунт Кук";6;5272;;;;;;;;0;"'cook':5 'gtn':1 'mt':4 'кук':3 'маунт':2";500;170.136;0;0
GTO;ID;Gorontalo;Горонтало;12;4056;Горонтало;Горонтало;;Горонтало;Горонтало;"в Горонтало";;0;"'gorontalo':3 'gto':1 'горонтало':2";0.534444;123.062;1;0
GTT;AU;Georgetown;Джорджтаун;13;4889;Джорджтауну;Джорджтауна;;Джорджтауном;Джорджтаун;"в Джорджтауне";;0;"'georgetown':3 'gtt':1 'джорджтаун':2";-33.3667;138.4;1;0
GTW;CZ;Zlin;Злин;6;631;Злину;Злина;;Злином;Злин;"в Злине";;0;"'gtw':1 'zlin':3 'злин':2";0;0;1;0
GTY;US;Gettysburg;Геттисберг;75;2085;;;;;;;;0;"'gettysburg':3 'gty':1 'геттисберг':2";500;-77.2311;0;0
GTZ;TZ;Grumeti;Грумети;7;7691;;;;;;;;0;"'grumeti':2 'gtz':1";500;0;0;0
GUA;GT;"Guatemala City";"Гватемала Сити";1;6628;;;;;;;;0;"'city':5 'gua':1 'guatemala':4 'гватемала':2 'сити':3";500;-90.5269;0;1
GUC;US;Gunnison;Ганнисон;95;2105;Ганнисону;Ганнисона;;Ганнисоном;Ганнисон;"в Ганнисоне";Ганисон;0;"'guc':1 'gunnison':2";38.5458;-106.925;1;0
GUF;US;"Gulf Shores";"Галф Шорз";104;2114;"Галф Шорзу";"Галф Шорза";;"Галф Шорзом";"Галф Шорз";"в Галф Шорзе";"Галф Шорез";0;"'guf':1 'gulf':2 'shores':3";30.246;-87.7008;1;0
GUG;PG;Guari;Гуари;21;6375;;;;;;;;0;"'guari':3 'gug':1 'гуари':2";500;146.9;0;0
GUH;AU;Gunnedah;Ганнеда;18;4894;Ганнеде;Ганнеды;;Ганнедой;Ганнеду;"в Ганнеде";"Ганеда, Ганедах";0;"'guh':1 'gunnedah':3 'ганнеда':2";-30.9833;150.25;1;0
GUI;VE;Guiria;Гуйриа;7;7739;;;;;;;;0;"'gui':1 'guiria':3 'гуйриа':2";500;-63.3306;0;0
GUJ;BR;Guaratingueta;Гуаратингета;30;3684;;;;;;;;0;"'guaratingueta':3 'guj':1 'гуаратингета':2";500;-45.1925;0;0
GUL;AU;Goulburn;Гоулбурн;25;4901;;;;;;;;0;"'goulburn':3 'gul':1 'гоулбурн':2";500;149.717;0;0
GUM;GU;Hagatna;Хагатна;1;6637;Гуаму;Гуама;;Гуамом;Гуам;"в Гуаме";Гуам;0;"'guam':3 'gum':1 'гуам':2";13.4444;144.737;1;0
APO;CO;Apartado;Апартадо;12;6902;Апартадо;Апартадо;;Апартадо;Апартадо;"в Апартадо";"Апарт Адо";0;"'apartado':3 'apo':1 'апартадо':2";7.88556;-76.6347;1;0
APS;BR;Anapolis;Анаполис;36;3690;Анаполису;Анаполиса;;Анаполисом;Анаполис;"в Анаполисе";;0;"'anapolis':3 'aps':1 'анаполис':2";-16.3267;-48.9528;1;0
MEL;AU;Melbourne;Мельбурн;2;4878;Мельбурну;Мельбурна;"в Мельбурн";Мельбурном;Мельбурн;"в Мельбурне";;0;"'mel':1 'melbourne':3 'мельбурн':2";-37.814;144.963;1;0
MEM;US;Memphis;Мемфис;155;2165;;;;;;;;0;"'mem':1 'memphis':3 'мемфис':2";500;-90.049;0;0
MEN;FR;Mende;Менде;17;215;;;;;;;;0;"'men':1 'mende':3 'менде':2";500;0;0;0
MEO;US;Manteo;Мантео;166;2176;Мантео;Мантео;;Мантео;Мантео;"в Мантео";;0;"'manteo':2 'meo':1";35.9082;-75.6757;1;0
MEP;MY;Mersing;Мерсинг;10;6047;Мерсингу;Мерсинга;;Мерсингом;Мерсинг;"в Мерсинге";;0;"'mep':1 'mersing':3 'мерсинг':2";2.43333;103.833;1;0
MES;ID;Medan;Медан;3;4047;Медану;Медана;"в Медан";Меданом;Медан;"в Медане";;0;"'medan':3 'mes':1 'медан':2";3.58333;98.6667;1;0
MEU;BR;"Monte Dourado";Монте-Дурадо;49;3703;;;;;;;;0;"'dourado':6 'meu':1 'monte':5 'дурадо':4 'монте':3 'монте-дурадо':2";500;-52.5283;0;0
MEV;US;Minden;Минден;193;2203;Миндену;Миндена;;Минденом;Минден;"в Миндене";;0;"'mev':1 'minden':2";39;-119.75;1;0
MEX;MX;"Mexico City";Мехико;1;5948;Мехико;Мехико;"в Мехико";Мехико;Мехико;"в Мехико";;0;"'city':5 'mex':1 'mexico':4 'мексико':2 'сити':3";19.4342;-99.1386;1;1
MEY;NP;Meghauli;Мегхаули;9;5250;;;;;;;;0;"'meghauli':3 'mey':1 'мегхаули':2";500;84.2333;0;0
MEZ;ZA;Messina;Мессина;16;6240;Мессине;Мессины;;Мессиной;Мессину;"в Мессине";Месина;0;"'messina':3 'mez':1 'мессина':2";0;0;1;0
MFA;TZ;Mafia;Мафия;10;7694;Мафии;Мафии;;Мафией;Мафию;"в Мафии";;0;"'mafia':2 'mfa':1";-7.91389;39.665;1;0
MFT;PE;"Machu Picchu";Мачу-Пикчу;14;5344;Мачу-Пикчу;Мачу-Пикчу;"в Мачу-Пикчу";Мачу-Пикчу;Мачу-Пикчу;"в Мачу-Пикчу";"Мачу Пиччу, Мачу-Пиччу, Мачу Пикчу";0;"'machu':5 'mft':1 'picchu':6 'мачу':3 'мачу-пиччу':2 'пиччу':4";-13.1583;-72.5314;1;0
MFW;MZ;Magaruque;;7;7539;;;;;;;;0;"'magaruque':2 'mfw':1";500;0;0;0
MFX;FR;Meribel;Мерибел;27;225;;;;;;;;0;"'meribel':3 'mfx':1 'мерибел':2";500;0;0;0
MLZ;UY;Melo;Мело;5;7727;Мело;Мело;;Мело;Мело;"в Мело";;0;"'melo':3 'mlz':1 'мело':2";-32.3667;-54.1833;1;0
MMA;SE;Malmo;Мальмё;3;1817;Мальмё;Мальмё;"в Мальмё";Мальмё;Мальмё;"в Мальмё";Мальме;0;"'malmo':3 'mma':1 'мальме':2";55.603;13.001;1;0
MMB;JP;Memambetsu;Мемамбецу;25;1565;Мемамбецу;Мемамбецу;;Мемамбецу;Мемамбецу;"в Мемамбенцу";;0;"'memambetsu':3 'mmb':1 'меманбецу':2";43.9072;144.174;1;0
MMC;MX;"Ciudad Mante";Сиудад-Манте;16;5963;Сиудад-Манте;Сиудад-Манте;;Сиудад-Манте;Сиудад-Манте;"в Сиудад-Манте";"Сиудад Манте";0;"'ciudad':5 'mante':6 'mmc':1 'манте':4 'сиудад':3 'сиудад-манте':2";22.7333;-98.95;1;0
MMD;JP;"Minami Daito";"Минами Дайто";27;1567;"Минами Дайто";"Минами Дайто";;"Минами Дайто";"Минами Дайто";"в Минами Дайто";"Минами Даито";0;"'daito':3 'minami':2 'mmd':1";25.8414;131.247;1;0
MME;GB;Teesside;Тиссайд;26;911;Тиссайду;Тиссайда;;Тиссайдом;Тиссайд;"в Тиссайде";Тисайд;0;"'durham':3 'mme':1 'дарем':2";54.5167;-1.41667;1;0
MMG;AU;"Mount Magnet";Маунт-Магнет;54;4930;Маунт-Магнету;Маунт-Магнета;;Маунт-Магнетом;Маунт-Магнет;"в Маунт-Магнете";"Маунт Магнет";0;"'magnet':6 'mmg':1 'mount':5 'магнет':4 'моунт':3 'моунт-магнет':2";-28.0667;117.817;1;0
MMH;US;"Mammoth Lakes";"Маммот Лейкс";286;2296;"Маммот Лейксу";"Маммот Лейкса";;"Маммот Лейксом";"Маммот Лейкс";"в Маммот Лейксе";"Мамот Лейкс";0;"'lakes':5 'mammoth':4 'mmh':1 'лейкс':3 'маммот':2";37.6485;-118.972;1;0
MNO;CD;Manono;Маноно;11;6831;Маноно;Маноно;;Маноно;Маноно;"в Маноно";;0;"'manono':3 'mno':1 'маноно':2";0;0;1;0
MOP;US;"Mount Pleasant";Маунт-Плезант;300;2310;;;;;;;;0;"'mop':1 'mount':5 'pleasant':6 'маунт':3 'маунт-плезант':2 'плезант':4";500;-79.8626;0;0
MOR;US;Morristown;Морристаун;306;2316;;;;;;;;0;"'mor':1 'morristown':2";500;-83.2949;0;0
MOS;US;"Moses Point";;312;2322;;;;;;;;0;"'mos':1 'moses':2 'point':3";500;0;0;0
MOT;US;Minot;Мина;320;2330;;;;;;;;0;"'minot':3 'mot':1 'мина':2";500;-101.296;0;0
MOU;US;"Mountain Village";"Маунтин Вилладж";329;2339;;;;;;;;0;"'mou':1 'mountain':2 'village':3";500;-107.856;0;0
MPL;FR;Montpellier;Монпелье;34;232;Монпелье;Монпелье;"в Монпелье";Монпелье;Монпелье;"в Монпелье";;0;"'montpellier':3 'mpl':1 'монпейе':2";43.6;3.88333;1;0
MPM;MZ;Maputo;Мапуто;1;7533;Мапуто;Мапуто;;Мапуто;Мапуто;"в Мапуто";;0;"'maputo':3 'mpm':1 'мапуту':2";-25.9653;32.5892;1;1
MPN;FK;"Mount Pleasant";Маунт-Плезант;2;7038;Маунт-Плезанту;Маунт-Плезанта;;Маунт-Плезантом;Маунт-Плезант;"в Маунт-Плезанте";"Маунт Плезант";0;"'mount':5 'mpn':1 'pleasant':6 'маунт':3 'маунт-плезант':2 'плезант':4";-51.8167;-58.45;1;0
MPO;US;"Mt Pocono";Маунт-Поконо;347;2357;Маунт-Поконо;Маунт-Поконо;;Маунт-Поконо;Маунт-Поконо;"в Маунт-Поконое";"Маунт Поконо";0;"'mpo':1 'mt':2 'pocono':3";41.1333;-75.3667;1;0
MPQ;JO;Maan;Маан;3;4807;Маане;Маана;;Мааном;Маан;"в Маане";;0;"'maan':3 'mpq':1 'маан':2";30.1667;35.7667;1;0
MPR;US;McPherson;МакФерсон;353;2363;макФерсону;МакФерсона;;МакФерсоном;МакФерсон;"в МакФерсоне";"Мак Ферсон";0;"'mcpherson':2 'mpr':1";38.3708;-97.6642;1;0
MPS;US;"Mount Pleasant";"Моунт Плезант";359;2369;Маунт-Плезанту;Маунт-Плезанта;;Маунт-Плезантом;Маунт-Плезант;"в Маунт-Плезанте";;0;"'mount':5 'mps':1 'pleasant':6 'маунт':3 'маунт-плезант':2 'плезант':4";0;0;1;0
MPV;US;Montpelier;Монпелье;362;2372;Монпелье;Монпелье;;Монпелье;Монпелье;"в Монпелье";;0;"'montpelier':3 'mpv':1 'монпилир':2";44.2601;-72.5754;1;0
MPW;UA;Mariupol;Мариуполь;10;1268;Мариуполю;Мариуполя;"в Мариуполь";Мариуполем;Мариуполь;"в Мариуполе";;0;"'mariupol':3 'mpw':1 'мариуполь':2";47.0667;37.5;1;0
MQB;US;Macomb;Макомб;374;2384;Макомбу;Макомба;;Макомбом;Макомб;"в Макомбе";;0;"'macomb':2 'mqb':1";40.4592;-90.6718;1;0
MQF;RU;Magnitogorsk;Магнитогорск;45;45;Магнитогорску;Магнитогорска;"в Магнитогорск";Магнитогорском;Магнитогорск;"в Магнитогорске";;0;"'magnitogorsk':3 'mqf':1 'магнитогорск':2";53.4186;59.0472;1;0
MQJ;RU;Khonuu;Хонуу;49;49;;;;;;;;0;"'khonuu':3 'mqj':1 'хонуу':2";0;0;1;0
MQK;BO;"San Matias";Сан-Матиас;8;7461;Сан-Матиасу;Сан-Матиаса;;Сан-Матиасом;Сан-Матиас;"в Сан-Матиасе";"Сан Матиас";0;"'matias':6 'mqk':1 'san':5 'матиас':4 'сан':3 'сан-матиас':2";-16.3667;-58.4;1;0
MQL;AU;Mildura;Милдура;84;4960;Милдуре;Милдуры;;Милдурой;Милдуру;"в Милдуре";;0;"'mildura':3 'mql':1 'мильдура':2";-34.2;142.15;1;0
MQM;TR;Mardin;Мардин;22;1213;Мардину;Мардина;;Мардином;Мардин;"в Мардине";;0;"'mardin':3 'mqm':1 'мардин':2";37.3128;40.7386;1;0
MQN;NO;"Mo I Rana";Мо-И-Рана;28;1712;Мо-И-Рана;Мо-И-Рана;;Мо-И-Рана;Мо-И-Рана;"в Мо-И-Рана";"Мо И Рана";0;"'i':7 'mo':6 'mqn':1 'rana':8 'и':4 'му':3 'му-и-рана':2 'рана':5";66.3167;14.1667;1;0
MQQ;TD;Moundou;Мунду;2;7671;Мунду;Мунду;;Мунду;Мунду;"в Мунду";;0;"'moundou':3 'mqq':1 'мунду':2";8.56667;16.0833;1;0
MQS;VC;Mustique;Мюстик;4;7781;Мюстику;Мюстика;;Мюстиком;Мюстик;"в Мюстике";;0;"'mqs':1 'mustique':5 'айленд':4 'мистик':3 'мистик-айленд':2";12.8833;-61.1833;1;0
MQT;US;Marquette;Маркетт;432;2442;Маркетту;Маркетта;;Маркеттом;Маркетт;"в Маркетте";Маркет;0;"'marquette':3 'mqt':1 'маркетт':2";46.5435;-87.3954;1;0
MQX;ET;Makale;Макале;15;7014;Макале;Макале;;Макале;Макале;"в Макале";Макалэ;0;"'mekele':3 'mqx':1 'макале':2";13.4967;39.4753;1;0
MQY;US;Smyrna;Смирна;445;2455;Смирне;Смирны;;Смирной;Смирну;"в Смирне";;0;"'mqy':1 'smyrna':3 'смирна':2";35.9833;-86.5;1;0
MQZ;AU;"Margaret River";Маргарет-Ривер;97;4973;Маргарет-Ривер;Маргарет-Ривер;;Маргарет-Ривер;Маргарет-Ривер;"в Маргарет-Ривер";"Маргарет Ривер";0;"'margaret':4 'mqz':1 'river':5 'маргарет':2 'ривер':3";-33.95;115.067;1;0
MRA;LY;Misurata;Мисурата;7;7077;Мисурате;Мисураты;;Мисуратой;Мисурату;"в Мисурате";;0;"'misurata':3 'mra':1 'мисурата':2";32.3783;15.0906;1;0
MRB;US;Martinsburg;Мартинсбург;464;2474;Мартинсбургу;Мартинсбурга;;Мартинсбургом;Мартинсбург;"в Мартинсбурге";;0;"'martinsburg':3 'mrb':1 'мартинсберг':2";39.4562;-77.9639;1;0
MRC;US;Columbia;Колумбия;468;2478;Колумбии;Колумбии;;Колумбией;Колумбию;"в Колумбии";;0;"'columbia':3 'mrc':1 'колумбия':2";35.6167;-87.0333;1;0
MRD;VE;Merida;Мерида;14;7746;Мериде;Мериды;;Меридой;Мерида;"в Мериде";;0;"'merida':3 'mrd':1 'мериба':2";8.59833;-71.145;1;0
MRE;KE;"Mara Lodges";Мара-Лоджес;15;7097;мара-Лоджесу;Мара-Лоджеса;;Мара-Лоджесом;Мара-Лоджес;"в Мара-Лоджесе";"Мара Лоджес";0;"'maasai':5 'mara':6 'mre':1 'лоджес':4 'мара':3 'мара-лоджес':2";-1.18333;35.0833;1;0
MRG;AU;Mareeba;Мариба;106;4982;Марибе;Марибы;;Марибой;Марибу;"в Марибе";;0;"'mareeba':3 'mrg':1 'мариба':2";-17;145.433;1;0
ZCS;DE;Darmstadt;Дармштадт;132;766;Дармштадту;Дармштадта;;Дармштадтом;Дармштадт;"в Дармштадте";;1;"'darmstadt':3 'zcs':1 'дармштадт':2";49.8706;8.64944;1;0
ZCT;DE;Delmenhorst;Дельменхорст;133;767;Дельменхорсту;Дельменхорста;;Дельменхорстом;Дельменхорст;"в Дельменхорсте";;1;"'delmenhorst':3 'zct':1 'дельменхорст':2";53.05;8.61667;1;0
ZCU;CN;"She Kou";"Ше Коу";123;4338;"Ше Коу";"Ше Коу";;"Ше Коу";"Ше Коу";"в Ше Коу";;0;"'kou':3 'she':2 'zcu':1";51.9386;8.87318;1;0
ZCW;DE;Dormagen;Дормаген;134;768;;;;;;;;1;"'dormagen':3 'zcw':1 'дормаген':2";500;0;0;0
ZCY;DE;Dueren;Дюрен;136;770;;;;;;;;1;"'dueren':3 'zcy':1 'дюрен':2";500;0;0;0
ZCZ;DE;Erlangen;Эрланген;138;772;Эрлангену;Эрлангена;;Эрлангеном;Эрланген;"в Эрлангене";;1;"'erlangen':3 'zcz':1 'эрланген':2";49.5897;11.0039;1;0
ZDA;CH;Dueren;Дюрен;24;1419;Дюрену;Дюрена;;Дюреном;Дюрен;"в Дюрене";;1;"'aarau':3 'zda':1 'арау':2";0;0;1;0
ZDB;CH;Adelboden;Адельбоден;25;1420;Адельбодену;Адельбодена;;Адельбоденом;Адельбоден;"в Адельбодене";;1;"'adelboden':2 'zdb':1";46.4833;7.56667;1;0
ZDC;CH;Aigle;Эгль;26;1421;Эглю;Эгля;;Эглем;Эгль;"в Эгле";;1;"'aigle':3 'zdc':1 'эгль':2";0;0;1;0
ZDD;CH;Arbon;Арбон;27;1422;;;;;;;;1;"'arbon':3 'zdd':1 'арбон':2";500;0;0;0
ZDE;CH;Arosa;Ароза;28;1423;Арозе;Арозы;;Арозой;Арозу;"в Арозе";;1;"'arosa':3 'zde':1 'ароза':2";0;0;1;0
ZDG;CH;Baden;Баден;29;1424;;;;;;;;1;"'baden':3 'zdg':1 'баден':2";500;0;0;0
ZDI;CH;Bellinzona;;30;1425;;;;;;;;1;"'bellinzona':2 'zdi':1";500;0;0;0
ZDK;CH;"Biel Bienne";Биль;31;1426;Билю;Биля;;Билем;Биль;"в Биле";"Биль Бенне";1;"'biel':3 'bienne':4 'zdk':1 'биль':2";0;0;1;0
ZES;DE;Goeppingen;Геппинген;141;775;Геппингену;Геппингена;;Геппингеном;Геппинген;"в Геппингене";;1;"'goeppingen':2 'zes':1";0;0;1;0
ZET;DE;Goslar;Гослар;143;777;Гослару;Гослара;;Госларом;Гослар;"в Госларе";;1;"'goslar':3 'zet':1 'гослар':2";51.9;10.4333;1;0
ZEU;DE;Goettingen;Геттинген;145;779;Геттингену;Геттингена;;Геттингеном;Геттинген;"в Геттингене";Гетинген;1;"'goettingen':2 'zeu':1";0;0;1;0
ZEV;DE;Grevenbroich;Гревенброх;146;780;;;;;;;;1;"'grevenbroich':3 'zev':1 'гревенброх':2";500;0;0;0
ZEW;DE;Gummersbach;Гуммерсбах;147;781;;;;;;;;1;"'gummersbach':3 'zew':1 'гуммерсбах':2";500;0;0;0
ZEY;DE;Hagen;;149;783;;;;;;;;1;"'hagen':2 'zey':1";500;7.46667;0;0
ZJZ;CH;Rorschach;Роршах;32;1427;;;;;;;;1;"'rorschach':3 'zjz':1 'роршах':2";500;0;0;0
ZKA;CH;Sargans;Зарганс;33;1428;;;;;;;;1;"'sargans':3 'zka':1 'зарганс':2";500;0;0;0
ZKB;ZM;"Kasaba Bay";"Касаба Бей";7;7839;"Касаба Бею";"Касаба Бея";;"Касаба Беем";"Касаба Бей";"в Касаба Бее";;0;"'bay':6 'kasaba':5 'zkb':1 'бей':4 'касаба':3 'касаба-бей':2";0;0;1;0
ZKC;CH;Sarnen;Зарнен;34;1429;;;;;;;;1;"'sarnen':3 'zkc':1 'зарнен':2";500;0;0;0
ZKE;CA;Kaschechewan;Кашечеван;227;5673;;;;;;;;0;"'kashechewan':3 'zke':1 'кашечеван':2";52.333332;-81.333336;1;0
ZKF;CH;"St Margrethen";;35;1430;;;;;;;;1;"'margrethen':3 'st':2 'zkf':1";500;0;0;0
ZKG;CA;Kegaska;Кегаска;231;5677;Кегаске;Кегаски;;Кегаской;Кегаску;"в Кегаске";;0;"'kegaska':3 'zkg':1 'кегаска':2";50.1889;-61.2917;1;0
ZKI;CH;"Saas Fee";"Саас Фее";36;1431;"Саас Фее";"Саас Фее";;"Саас Фее";"Саас Фее";"в Саас Фее";;1;"'fee':6 'saas':5 'zki':1 'зас':3 'зас-фе':2 'фе':4";0;0;1;0
ZKJ;CH;Schaffhausen;Шаффхаузен;37;1432;;;;;;;;1;"'schaffhausen':3 'zkj':1 'шаффхаузен':2";500;0;0;0
ZKK;CH;Schwyz;Швиц;38;1433;Швицу;Швица;;Швицем;Швиц;"в Швице";;1;"'schwyz':3 'zkk':1 'швиц':2";47.0167;8.65;1;0
ZKO;CH;Sierre;Сиерре;39;1434;Сиерре;Сиерре;;Сиерре;Сиерре;"в Сиерре";Сиере;1;"'sierre':2 'zko':1";46.2919;7.53559;1;0
ZKP;RU;Zyryanka;Зырянка;80;80;;;;;;;;0;"'zkp':1 'zyryanka':3 'зырянка':2";65.75;150.9;1;0
ZLE;CH;Wengen;Венген;40;1435;Венгену;Венгена;;Венгеном;Венген;"в Венгене";;1;"'wengen':3 'zle':1 'венген':2";0;0;1;0
ZLR;CL;Linares;Линарес;21;5910;Линаресу;Линареса;;Линаресом;Линарес;"в Линаресе";;0;"'linares':3 'zlr':1 'линарес':2";-35.85;-71.6;1;0
ZLT;CA;"La Tabatiere";"Ла Табатьер";242;5688;"Ла Табатьеру";"Ла Табатьера";;"Ла Табатьером";"Ла Табатьер";"в Ла Табатьере";;0;"'la':4 'tabatiere':5 'zlt':1 'ля':2 'табатиери':3";51;-59;1;0
ZLU;DE;Ludwigslust;Людвигслюст;155;789;Людвигслюсту;Людвигслюста;;Людвигслюстом;Людвигслюст;"в Людвигслюсте";;1;"'ludwigslust':2 'zlu':1";53.3167;11.5;1;0
ZLX;SD;Zalengei;Залингее;10;7438;;;;;;;;0;"'zalengei':3 'zlx':1 'залингее':2";500;0;0;0
ZMA;GB;Mansfield;Мэнсфилд;59;944;Мэнсфилду;Мэнсфилда;;Мэнсфилдом;Мэнсфилд;"в Мэнсфилде";;0;"'mansfield':3 'zma':1 'мэнсфилд':2";53.1333;-1.2;1;0
GSA;MY;Sabah;Сабах;29;6066;Сабаху;Сабаха;;Сабахом;Сабах;"в Сабахе";Сабат;0;"'gsa':1 'sabah':2";3.76667;100.983;1;0
GSB;US;Goldsboro;Голдсборо;748;2758;Голдсборо;Голдсборо;;Голдсборо;Голдсборо;"в Голдсборо";;0;"'goldsboro':3 'gsb':1 'голдсборо':2";35.3849;-77.9928;1;0
GSH;US;Goshen;Гошен;761;2771;Гошену;Гошена;;Гошеном;Гошен;"в Гошене";;0;"'goshen':3 'gsh':1 'гошен':2";41.5823;-85.8344;1;0
GSM;IR;Gheshm;Кешм;27;6688;Кешму;"из Кешма";"в Кешм";Кешмомо;Кешм;"в Кешме";;0;"'gheshm':2 'gsm':1";26.7562;55.894436;1;0
GSO;US;Greensboro;Гринсборо;777;2787;Гринсборо;Гринсборо;;Гринсборо;Гринсборо;"в Гринсборо";;0;"'greensboro':3 'gso':1 'гринсборо':2";36.0726;-79.792;1;0
GSP;US;Greenville;Гринвилль;787;2797;Гринвиллю;Гринвилля;;Гринвиллем;Гринвилль;"в Гринвилле";Гринвиль;0;"'greenville':2 'gsp':1";34.85;-82.3833;1;0
GSQ;EG;"Shark Elowainat";"Шарк Элоуанат";19;4034;"Шарк Элоуанату";"Шарк Элоуаната";;"Шарк Элоуанатом";"Шарк Элоуанат";"в Шарк Элоуанате";"Шарк Элованат";0;"'elowainat':3 'gsq':1 'shark':2";22.5833;28.7167;1;0
GST;US;Gustavus;Густавус;802;2812;Густавусу;"из Густавуса";"в Густавус";Густавусом;Густавус;"в Густавусе";;0;"'bay':3 'glacier':2 'gst':1";58.4275;-135.705;1;0
GYE;EC;Guayaquil;Гуаякиль;4;3959;Гуаякилю;Гуаякиля;;Гуаякилем;Гуаякиль;"в Гуаякиле";;0;"'guayaquil':3 'gye':1 'гуайяквил':2";-2.16667;-79.9;1;0
GYI;RW;Gisenyi;Гисеный;2;7368;Гисеному;Гисеного;;Гисеным;Гисеный;"в Гисеном";;0;"'gisenyi':3 'gyi':1 'гисеный':2";-1.70278;29.2564;1;0
GYM;MX;Guaymas;Гваймас;42;5989;Гваймасу;Гваймаса;;Гваймасом;Гваймас;"в Гваймасе";;0;"'guaymas':3 'gym':1 'гуаймас':2";27.9333;-110.9;1;0
GYN;BR;Goiania;Гояния;166;3820;Гоянии;Гоянии;;Гоянией;Гоянию;"в Гоянии";;0;"'goiania':3 'gyn':1 'гояния':2";-16.6786;-49.2539;1;0
GYP;AU;Gympie;Гимпи;180;5056;Гимпи;Гимпи;;Гимпи;Гимпи;"в Гимпи";;0;"'gympie':3 'gyp':1 'гимпи':2";-26.1833;152.667;1;0
GYR;US;Goodyear;Гудиер;843;2853;Гудиеру;Гудиера;;Гудиером;Гудиер;"в Гудиере";;0;"'goodyear':3 'gyr':1 'гудиер':2";33.4353;-112.358;1;0
GYS;CN;"Guang Yuan";Гуаньюань;185;4400;Гуаньюаню;Гуаньюаня;;Гуаньюанем;Гуаньюань;"в Гуаньюане";;0;"'guang':3 'gys':1 'yuan':4 'гуанъюань':2";32.395;105.7;1;0
GYU;CN;Guyuan;Гуюань;186;4401;;;;;;;;0;"'guyuan':3 'gyu':1 'shi':4 'гуюань':2";500;106.25;1;0
GYY;US;Gary;Гери;866;2876;Гери;Гери;;Гери;Гери;"в Гери";;0;"'gary':2 'gyy':1";41.5934;-87.3464;1;0
GZA;PS;Gaza;Газа;1;7645;;;;;;;;0;"'gaza':3 'gza':1 'газа':2";500;34.4667;0;0
GZG;CN;Ganzi;;189;4404;;;;;;;;0;"'ganzi':2 'gzg':1";500;0;0;0
GZM;MT;Gozo;Гозо;2;5931;Гозо;Гозо;;Гозо;Гозо;"в Гозо";;0;"'gozo':3 'gzm':1 'гозо':2";36.0494;14.25;1;0
GZP;TR;Gazipasa;Газипаша;41;1232;Газипаше;Газипаши;"в Газипашу";Газипашой;Газипашу;"в Газипаше";Газипаса,Газипаза,Алания,Аланья;0;"'gazipasa':2 'gzp':1";36.3;32.3;1;0
GZT;TR;Gaziantep;Газиантеп;42;1233;Газиантепу;Газиантепа;;Газиантепом;Газиантеп;"в Газиантепе";;0;"'gaziantep':3 'gzt':1 'газиантеп':2";37.0594;37.3825;1;0
HAA;NO;Hasvik;Хасвик;50;1734;Хасвику;Хасвика;;Хасвиком;Хасвик;"в Хасвике";;0;"'haa':1 'hasvik':3 'хасвик':2";70.4833;22.15;1;0
HAB;US;Hamilton;Гамильтон;907;2917;;;;;;;;0;"'hab':1 'hamilton':3 'гамильтон':2";500;0;0;0
HAC;JP;"Hachijo Jima";"Хачиджо Джима";64;1604;"Хачиджо Джиме";"Хачиджо Джимы";;"Хачиджо Джимой";"Хачиджо Джиму";"в Хачиджо Джиме";;0;"'hac':1 'hachijo':2 'jima':3";33.1133;139.791;1;0
HAD;SE;Halmstad;Халмстад;31;1845;Халмстаду;Халмстада;;Халмстадом;Халмстад;"в Халмстаде";Хэлмстад;0;"'had':1 'halmstad':3 'халмстад':2";56.6714;12.8556;1;0
WAG;NZ;Wanganui;Вангануи;29;5295;;;;;;;;0;"'wag':1 'wanganui':3 'вангануи':2";500;175.05;0;0
WAI;MG;Antsohihy;Антсохиху;29;7214;;;;;;;;0;"'antsohihy':3 'wai':1 'антсохиху':2";500;47.9833;0;0
WAK;MG;Ankazoabo;Анказоабо;31;7216;;;;;;;;0;"'ankazoabo':3 'wak':1 'анказоабо':2";500;0;0;0
WAL;US;Chincoteague;Чинкотик;938;2948;;;;;;;;0;"'chincoteague':2 'wal':1";500;-75.3788;0;0
WAM;MG;Ambatondrazaka;Амбатондразака;32;7217;;;;;;;;0;"'ambatondrazaka':3 'wam':1 'амбатондразака':2";500;0;0;0
WAN;AU;Waverney;Вейверни;212;5088;;;;;;;;0;"'wan':1 'waverney':3 'вейверни':2";500;0;0;0
WAO;PG;Wabo;Вабо;108;6462;Вабо;Вабо;;Вабо;Вабо;"в Вабо";;0;"'wabo':3 'wao':1 'вабо':2";-7.66667;145;1;0
WAQ;MG;Antsalova;Антсалова;33;7218;Антсалове;Антсаловы;;Антсаловой;Антсалову;"в Антсалове";;0;"'antsalova':3 'waq':1 'антсалова':2";0;0;1;0
WAS;US;Washington;Вашингтон;5;2015;Вашингтону;Вашингтона;"в Вашингтон";Вашингтоном;Вашингтон;"в Вашингтоне";США,Америка;0;"'was':1 'washington':3 'вашингтон':2";38.8929;-77.0057;1;1
WAT;IE;Waterford;Вотерфорд;12;4209;;;;;;;;0;"'wat':1 'waterford':3 'вотерфорд':2";500;-7.08889;0;0
WAW;PL;Warsaw;Варшава;1;1909;Варшаве;Варшавы;"в Варшаву";Варшавой;Варшаву;"в Варшаве";;0;"'warsaw':3 'waw':1 'варшава':2";52.25;21;1;1
WAY;US;Waynesburg;Уэнсберг;986;2996;Уэнсбергу;Уэнсберга;;Уэнсбергом;Уэнсберг;"в Уэнсберге";Вайнесберг;0;"'way':1 'waynesburg':2";0;0;1;0
WAZ;AU;Warwick;Уорвик;221;5097;Уорвику;Уорвика;;Уорвиком;Уорвик;"в Уорвике";;0;"'warwick':3 'waz':1 'варвик':2";-28.2333;152.017;1;0
WBB;US;Stebbins;Стеббинс;999;3009;Стеббинсу;Стеббинса;;Стеббинсем;Стеббинс;"в Стеббинсе";Стебинс;0;"'stebbins':2 'wbb':1";63.5222;-162.288;1;0
WBD;MG;Befandriana;Бефандриана;35;7220;;;;;;;;0;"'befandriana':3 'wbd':1 'бефандриана':2";500;0;0;0
WBE;MG;Bealanana;Беаланана;36;7221;;;;;;;;0;"'bealanana':3 'wbe':1 'беаланана':2";500;0;0;0
WMX;ID;Wamena;Уамена;95;4139;Уамене;Уамены;;Уаменой;Уамену;"в Уамене";Вамена;0;"'wamena':3 'wmx':1 'вамена':2";0;0;1;0
WNA;US;Napakiak;Напакиак;1030;3040;Напакиаку;Напакиака;;Напакиаком;Напакиак;"в Напакиаке";;0;"'napakiak':2 'wna':1";60.6967;-161.952;1;0
WNH;CN;Wenshan;Вэньшань;211;4426;;;;;;;;0;"'wenshan':2 'wnh':1";0;0;1;0
WNI;ID;"Wangi Wangi";;97;4141;;;;;;;;0;"'wangi':2,3 'wni':1";500;0;0;0
WNN;CA;"Wunnummin Lake";"Ваннаммин Лэйк";300;5746;;;;;;;;0;"'lake':5 'wnn':1 'wunnumin':4 'вуннумин':3 'озеро':2";52.916668;-89.166664;1;0
WNP;PH;Naga;Нага;45;6135;Наге;Наги;;Нагой;Нагу;"в Наге";;0;"'naga':3 'wnp':1 'нага':2";13.587222;123.27;1;0
WNS;PK;Nawabshah;Навабшах;29;7631;Навабшаху;Навабшаха;;Навабшахом;Навабшах;"в Навабшахе";;0;"'nawabshah':3 'wns':1 'навабшах':2";26.25;68.4167;1;0
WNZ;CN;Wenzhou;Венчжоу;30;4245;Венчжоу;Венчжоу;;Венчжоу;Венчжоу;"в Венчжоу";;0;"'wenzhou':3 'wnz':1 'венчжоу':2";28.0192;120.654;1;0
WOD;US;"Wood River";"Вуд Ривер";1071;3081;"Вуд Риверу";"Вуд Ривера";;"Вуд Ривером";"Вуд Ривер";"в Вуд Ривере";"Лесная Река";0;"'river':3 'wod':1 'wood':2";0;0;1;0
WRE;NZ;Whangarei;Вангарей;37;5303;Вангарею;Вангарея;;Вангареем;Вангарей;"в Вангарее";;0;"'whangarei':3 'wre':1 'вангарей':2";-35.7317;174.324;1;0
WRI;US;Wrightstown;;1085;3095;;;;;;;;0;"'wri':1 'wrightstown':2";500;0;0;0
WRL;US;Worland;Уорланд;1089;3099;Уорланду;Уорланда;;Уорландом;Уорланд;"в Уорланде";;0;"'worland':3 'wrl':1 'уэрленд':2";44.0169;-107.955;1;0
WRO;PL;Wroclaw;Вроцлав;4;1912;Вроцлаву;Вроцлава;"во Вроцлав";Вроцлавом;Вроцлав;"во Вроцлаве";;0;"'wro':1 'wroclaw':3 'вроцлав':2";51.1;17.0333;1;0
WRY;GB;Westray;Вестрей;81;966;Вестрею;Вестрея;;Вестреем;Вестрей;"в Вестрее";;0;"'westray':3 'wry':1 'вестрей':2";59.3;-3;1;0
WRZ;LK;Weerawila;;15;4868;;;;;;;;0;"'weerawila':2 'wrz':1";500;0;0;0
WSB;US;"Steamboat Bay";"Стимбоат Бей";1112;3122;"Стимбоат Бей";"Стимбоат Бей";;"Стимбоат Бей";"Стимбоат Бей";"в Стимбоат Бей";;0;"'bay':3 'steamboat':2 'wsb':1";0;0;1;0
WSE;EC;"Santa Cecilia";"Санта Сесилия";20;3975;"Санта Сесилии";"Санта Сесилии";;"Санта Сесилией";"Санта Сесилию";"в Санта Сесилии";;0;"'cecilia':3 'santa':2 'wse':1";0;0;1;0
WSF;US;"Cape Sarichef";;1125;3135;;;;;;;;0;"'cape':2 'sarichef':3 'wsf':1";500;0;0;0
WSG;US;Washington;Вашингтон;1130;3140;Вашингтону;Вашингтона;;Вашингтоном;Вашингтон;"в Вашингтоне";;0;"'washington':3 'wsg':1 'вашингтон':2";40.1738;-80.245;1;0
WSH;US;Brookhaven;Брукхавен;1139;3149;Брукхавену;Брукхавена;;Брукхавеном;Брукхавен;"в Брукхавене";;0;"'brookhaven':3 'wsh':1 'ширли':2";0;0;1;0
WSJ;US;"San Juan";"Сан Хуан";1144;3154;;;;;;;;0;"'juan':5 'san':4 'wsj':1 'сан':2 'хуан':3";500;0;0;0
WSK;CN;Wushan;;226;4441;;;;;;;;0;"'wsk':1 'wushan':2";500;0;0;0
WSM;US;Wiseman;Вайсмен;1160;3170;Вайсмену;Вайсмена;;Вайсменом;Вайсмен;"в Вайсмене";;0;"'wiseman':2 'wsm':1";0;0;1;0
WSN;US;"South Naknek";"Саут Накнек";1166;3176;"Саут Накнеку";"Саут Накнека";;"Саут Накнеком";"Саут Накнек";"в Саут Накнеке";;0;"'naknek':3 'south':2 'wsn':1";58.7156;-156.998;1;0
WST;US;Westerly;Вестерли;1173;3183;Вестерли;Вестерли;;Вестерли;Вестерли;"в Вестерли";;0;"'westerly':2 'wst':1";41.3776;-71.8273;1;0
WUG;PG;"Wau PG";Вау;129;6483;;;;;;;;0;"'pg':4 'wau':3 'wug':1 'вау':2";500;146.718;0;0
WWA;US;Wasilla;Уасилла;1186;3196;Уасилле;Уасиллы;;Уасиллой;Уасиллу;"в Уасилле";Васила;0;"'wasilla':3 'wwa':1 'уасилла':2";0;0;1;0
WWD;US;"Cape May";Кейп-Мэй;1194;3204;Кейп-Мэю;Кейп-Мэя;;Кейп-Мэем;Кейп-Мэй;"в Кейп-Мэе";"Кейп Мэй";0;"'cape':3 'may':4 'wwd':1 'вайлдвуд':2";38.9351;-74.906;1;0
WWK;PG;Wewak;Веварк;132;6486;Веварку;Веварка;;Веварком;Веварк;"в Веварке";;0;"'wewak':3 'wwk':1 'вевак':2";-3.55;143.633;1;0
WWP;US;"Whale Pass";"Вайл Пасс";1203;3213;"Вайл Пассу";"Вайл Пасса";;"Вайл Пассом";"Вайл Пасс";"в Вайл Пассе";;0;"'pass':3 'whale':2 'wwp':1";56.666668;-133.83333;1;0
WWR;US;Woodward;Вудвард;1209;3219;Вудварду;Вудварда;;Вудвардом;Вудвард;"в Вудварде";;0;"'woodward':2 'wwr':1";36.4336;-99.3904;1;0
WWT;US;Newtok;Ньюток;1217;3227;Ньютоку;Ньютока;;Ньютоком;Ньюток;"в Ньютоке";;0;"'newtok':2 'wwt':1";60.9428;-164.629;1;0
WWY;AU;"West Wyalong";Вест-Вьялонг;273;5149;Вест-Вьялонгу;Вест-Вьялонга;;Вест-Вьялонгом;Вест-Вьялонг;"в Вест-Вьялонге";"Вест Вьялонг";0;"'west':4 'wwy':1 'wyalong':5 'вайлонг':3 'вест':2";-33.9167;147.217;1;0
WXF;GB;Braintree;Брэйнтри;97;982;Брэйнтри;Брэйнтри;;Брэйнтри;Брэйнтри;"в Брэйнтри";;0;"'braintree':2 'wxf':1";51.8833;0.566667;1;0
WXJ;CN;Wanning;;238;4453;;;;;;;;0;"'wanning':2 'wxj':1";500;0;0;0
WXN;CN;Wanxian;Ваньсянь;239;4454;Ваньсяню;Ваньсяня;;Ваньсянем;Ваньсянь;"в Ваньсяне";;0;"'wanxian':2 'wxn':1";30.8039;108.39;1;0
WYA;AU;Whyalla;Вайалла;280;5156;Вайалле;Вайаллы;;Вайаллой;Вайаллу;"в Вайалле";Вайала;0;"'whyalla':3 'wya':1 'вайалла':2";-33.0333;137.583;1;0
WYB;US;"Yes Bay";"Ес Бей";1266;3276;"Ес Бею";"Ес Бея";;"Ес Беем";"Ес Бей";"в Ес Бее";;0;"'bay':3 'wyb':1 'yes':2";0;0;1;0
WYN;AU;Wyndham;Виндхем;283;5159;Виндхему;Виндхема;;Виндхемом;Виндхем;"в Виндхеме";;0;"'wyn':1 'wyndham':3 'виндхэм':2";-15.4667;128.1;1;0
WYS;US;"West Yellowstone";"Уэст Иелоустоун";1284;3294;"Уэст Иелоустоуну";"Уэст Иелоустоуна";;"Уэст Иелоустоуном";"Уэст Иелоустоун";"в Уэст Иелоустоуне";;0;"'west':4 'wys':1 'yellowstone':5 'йеллоустоун':3 'уест':2";44.6621;-111.104;1;0
XAB;FR;Abbeville;Аббевиль;231;429;Аббевилю;Аббевиля;;Аббевилем;Аббевиль;"в Аббевиле";Абевиль;1;"'abbeville':3 'xab':1 'абвиль':2";50.1;1.83333;1;0
XAC;FR;Arcachon;Аркашон;232;430;Аркашону;Аркашона;;Аркашоном;Аркашон;"в Аркашоне";;1;"'arcachon':3 'xac':1 'аркашон':2";44.65;-1.16667;1;0
XAG;FR;Agde;Агд;233;431;Агд;Агд;;Агд;Агд;"в Агд";;1;"'agde':3 'xag':1 'агд':2";43.3167;3.46667;1;0
XAH;DK;Silkeborg;Силкеборг;7;1302;Силкеборгу;Силкеборга;;Силкеборгом;Силкеборг;"в Силкеборге";;0;"'silkeborg':3 'xah':1 'силькеборг':2";56.1667;9.56667;1;0
XAJ;DK;Hirtshals;Хиртсхальц;11;1306;Хиртсхальцу;Хиртсхальца;;Хиртсхальцем;Хиртсхальц;"в Хиртсхальце";;0;"'hirtshals':3 'xaj':1 'хиртсхальс':2";0;0;1;0
XAK;DK;Herning;Хернинг;34;1329;Хернингу;Хернинга;;Хернингом;Хернинг;"в Хернинге";;1;"'herning':2 'xak':1";56.1333;8.98333;1;0
KVK;RU;Apatity;Апатиты;144;144;Апатитам;Апатитов;"в Апатиты";Апатитами;Апатиты;"в Апатитах";Кировск;0;"'kirovsk':3 'kvk':1 'кировск':2";67.583336;33.583332;1;0
XAL;MX;Alamos;Аламос;81;6028;Аламосу;Аламоса;;Аламосом;Аламос;"в Аламосе";;0;"'alamos':3 'xal':1 'аламос':2";27.0167;-108.933;1;0
XAM;FR;Amboise;Амбуаз;235;433;;;;;;;;1;"'amboise':3 'xam':1 'амбуаз':2";500;0;0;0
EAA;US;Eagle;Игл;1347;3357;Игл;Игл;;Игл;Игл;"в Игл";Еагл;0;"'eaa':1 'eagle':3 'игл':2";64.7767;-141.149;1;0
EAB;YE;Abbs;Эббс;14;7828;Эббсу;Эббса;;Эббсом;Эббс;"в Эббсе";Аббс;0;"'abbs':3 'eab':1 'аббсе':2";0;0;1;0
EAR;US;Kearney;Кеарней;1360;3370;Кеарнею;Кеарнея;;Кеарнеем;Кеарней;"в Кеарнее";Керни;0;"'ear':1 'kearney':3 'карни':2";40.6995;-99.0815;1;0
EAS;ES;"San Sebastian";Сан-Себастьян;79;530;;;;;;;;0;"'eas':1 'san':5 'sebastian':6 'сан':3 'сан-себастьян':2 'себастьян':4";500;-1.97499;0;0
EAT;US;Wenatchee;Уэнатчи;1370;3380;Уэнатчи;Уэнатчи;;Уэнатчи;Уэнатчи;"в Уэнатчи";;0;"'eat':1 'wenatchee':2";47.4235;-120.31;1;0
EAU;US;"Eau Claire";О-Клэр;1374;3384;О-Клэру;О-Клэра;;О-Клэром;О-Клэр;"в О-Клэре";"Оклэр, Оклер";0;"'claire':6 'eau':1,5 'клэр':4 'о':3 'о-клэр':2";44.8113;-91.4985;1;0
EBH;DZ;"El Bayadh";Эль-Баяд;29;4573;Эль-Баяду;"из Эль-Баяда";"в Эль-Баяд";Эль-Баядом;Эль-Баяд;"в Эль-Баяде";;0;"'bayadh':3 'ebh':1 'el':2";51.35278;4.457612;1;0
EBJ;DK;Esbjerg;Эсбьерг;12;1307;Эсбьергу;Эсбьерга;;Эсбьергом;Эсбьерг;"в Эсбьерге";Эсберг;0;"'ebj':1 'esbjerg':3 'эсбьерг':2";55.4667;8.45;1;0
EBL;IQ;Erbil;Эрбиль;3;6343;Эрбилю;Эрбиля;"в Эрбиль";Эрбилем;Эрбиль;"в Эрбиле";Эрбил;0;"'ebl':1 'erbil':3 'эрбил':2";36.19;44.0089;1;0
EBO;MH;Ebon;Эбон;5;7245;Эбон;Эбона;;Эбоном;Эбон;"в Эбоне";;0;"'ebo':1 'ebon':2";4.58333;168.733;1;0
ECH;AU;Echuca;Эчука;311;5187;Эчуке;Эчуки;;Эчукой;Эчуку;"в Эчуке";;0;"'ech':1 'echuca':3 'эчука':2";-36.1333;144.75;1;0
